// DB에는 longitude, latitude 데이터 타입 Number(double)로 들어가 있습니다.(String 아님)

[
  {
    "name": "젊은느티나무",
    "longitude": "127.0047847",
    "latitude": "37.64700626",
    "guId": "6344187ebe26106c41c6d734",
    "dongId": "63445ab0adb5727d4d0082aa",
    "_id": "63446185adb5727d4d008464"
  },
  {
    "name": "조계사 후문 앞",
    "longitude": "126.9832211",
    "latitude": "37.57372618",
    "guId": "63441c55be26106c41c6d748",
    "dongId": "63445ab0adb5727d4d0083c4",
    "_id": "63446185adb5727d4d008465"
  },
  {
    "name": "광화문한의원",
    "longitude": "126.9832211",
    "latitude": "37.57372618",
    "guId": "63441c55be26106c41c6d748",
    "dongId": "63445ab0adb5727d4d0083c4",
    "_id": "63446185adb5727d4d008466"
  },
  {
    "name": "동산불교회관",
    "longitude": "126.9832211",
    "latitude": "37.57372618",
    "guId": "63441c55be26106c41c6d748",
    "dongId": "63445ab0adb5727d4d0083c4",
    "_id": "63446185adb5727d4d008467"
  },
  {
    "name": "우정에쉐르",
    "longitude": "126.9832211",
    "latitude": "37.57372618",
    "guId": "63441c55be26106c41c6d748",
    "dongId": "63445ab0adb5727d4d0083c4",
    "_id": "63446185adb5727d4d008468"
  },
  {
    "name": "동덕빌딩 앞",
    "longitude": "126.9832211",
    "latitude": "37.57372618",
    "guId": "63441c55be26106c41c6d748",
    "dongId": "63445ab0adb5727d4d0083c4",
    "_id": "63446185adb5727d4d008469"
  },
  {
    "name": "롯데슈퍼 신도림점",
    "longitude": "126.8540469",
    "latitude": "37.49558207",
    "guId": "63441a94be26106c41c6d738",
    "dongId": "63445ab0adb5727d4d0082c8",
    "_id": "63446185adb5727d4d00846a"
  },
  {
    "name": "신도림우성5차아파트 501동 앞",
    "longitude": "126.8540469",
    "latitude": "37.49558207",
    "guId": "63441a94be26106c41c6d738",
    "dongId": "63445ab0adb5727d4d0082c8",
    "_id": "63446185adb5727d4d00846b"
  },
  {
    "name": "공구상가일번지관리단",
    "longitude": "126.8540469",
    "latitude": "37.49558207",
    "guId": "63441a94be26106c41c6d738",
    "dongId": "63445ab0adb5727d4d0082c5",
    "_id": "63446185adb5727d4d00846c"
  },
  {
    "name": "렛슬(아)306동 뒤",
    "longitude": "127.0657834",
    "latitude": "37.49885733",
    "guId": "63441486be26106c41c6d732",
    "dongId": "63445ab0adb5727d4d008293",
    "_id": "63446185adb5727d4d00846d"
  },
  {
    "name": "대치1동주민센터",
    "longitude": "127.0657834",
    "latitude": "37.49885733",
    "guId": "63441486be26106c41c6d732",
    "dongId": "63445ab0adb5727d4d008293",
    "_id": "63446185adb5727d4d00846e"
  },
  {
    "name": "중대부고 앞",
    "longitude": "127.0657834",
    "latitude": "37.49885733",
    "guId": "63441486be26106c41c6d732",
    "dongId": "63445ab0adb5727d4d008293",
    "_id": "63446185adb5727d4d00846f"
  },
  {
    "name": "숙명여고 앞",
    "longitude": "127.0657834",
    "latitude": "37.49885733",
    "guId": "63441486be26106c41c6d732",
    "dongId": "63445ab0adb5727d4d008293",
    "_id": "63446185adb5727d4d008470"
  },
  {
    "name": "대도초교 앞",
    "longitude": "127.0657834",
    "latitude": "37.49885733",
    "guId": "63441486be26106c41c6d732",
    "dongId": "63445ab0adb5727d4d008293",
    "_id": "63446185adb5727d4d008471"
  },
  {
    "name": "진도3차 관리사무소앞",
    "longitude": "126.9007561",
    "latitude": "37.46643569",
    "guId": "63441aa3be26106c41c6d739",
    "dongId": "63445ab0adb5727d4d0082cd",
    "_id": "63446185adb5727d4d008472"
  },
  {
    "name": "정도화성(주) 앞",
    "longitude": "126.9007561",
    "latitude": "37.46643569",
    "guId": "63441aa3be26106c41c6d739",
    "dongId": "63445ab0adb5727d4d0082cd",
    "_id": "63446185adb5727d4d008473"
  },
  {
    "name": "대동아파트형 공장 앞",
    "longitude": "126.9007561",
    "latitude": "37.46643569",
    "guId": "63441aa3be26106c41c6d739",
    "dongId": "63445ab0adb5727d4d0082cd",
    "_id": "63446185adb5727d4d008474"
  },
  {
    "name": "신세계 물류센터 앞",
    "longitude": "126.9007561",
    "latitude": "37.46643569",
    "guId": "63441aa3be26106c41c6d739",
    "dongId": "63445ab0adb5727d4d0082cd",
    "_id": "63446185adb5727d4d008475"
  },
  {
    "name": "문창운수 앞",
    "longitude": "126.9007561",
    "latitude": "37.46643569",
    "guId": "63441aa3be26106c41c6d739",
    "dongId": "63445ab0adb5727d4d0082cd",
    "_id": "63446185adb5727d4d008476"
  },
  {
    "name": "경희아트빌라",
    "longitude": "127.0517856",
    "latitude": "37.58373544",
    "guId": "63441b98be26106c41c6d73c",
    "dongId": "63445ab0adb5727d4d0082df",
    "_id": "63446185adb5727d4d008477"
  },
  {
    "name": "중앙수퍼마켓 사거리",
    "longitude": "127.0904337",
    "latitude": "37.5819082",
    "guId": "63441c78be26106c41c6d74a",
    "dongId": "63445ab0adb5727d4d008462",
    "_id": "63446185adb5727d4d008478"
  },
  {
    "name": "면목6동 나윤빌라 앞",
    "longitude": "127.0904337",
    "latitude": "37.5819082",
    "guId": "63441c78be26106c41c6d74a",
    "dongId": "63445ab0adb5727d4d008462",
    "_id": "63446185adb5727d4d008479"
  },
  {
    "name": "면목성당 앞",
    "longitude": "127.0904337",
    "latitude": "37.5819082",
    "guId": "63441c78be26106c41c6d74a",
    "dongId": "63445ab0adb5727d4d008462",
    "_id": "63446185adb5727d4d00847a"
  },
  {
    "name": "면목1동사무소 앞",
    "longitude": "127.0904337",
    "latitude": "37.5819082",
    "guId": "63441c78be26106c41c6d74a",
    "dongId": "63445ab0adb5727d4d008462",
    "_id": "63446185adb5727d4d00847b"
  },
  {
    "name": "복개천도로앞",
    "longitude": "127.0904337",
    "latitude": "37.5819082",
    "guId": "63441c78be26106c41c6d74a",
    "dongId": "63445ab0adb5727d4d008462",
    "_id": "63446185adb5727d4d00847c"
  },
  {
    "name": "자라 앞",
    "longitude": "126.9861109",
    "latitude": "37.56488123",
    "guId": "63441c64be26106c41c6d749",
    "dongId": "63445ab0adb5727d4d00842f",
    "_id": "63446185adb5727d4d00847d"
  },
  {
    "name": "명동 오다헤어",
    "longitude": "126.9861109",
    "latitude": "37.56488123",
    "guId": "63441c64be26106c41c6d749",
    "dongId": "63445ab0adb5727d4d00841d",
    "_id": "63446185adb5727d4d00847e"
  },
  {
    "name": "우리은행 앞",
    "longitude": "126.9861109",
    "latitude": "37.56488123",
    "guId": "63441c64be26106c41c6d749",
    "dongId": "63445ab0adb5727d4d008459",
    "_id": "63446185adb5727d4d00847f"
  },
  {
    "name": "중앙우체국 앞",
    "longitude": "126.9861109",
    "latitude": "37.56488123",
    "guId": "63441c64be26106c41c6d749",
    "dongId": "63445ab0adb5727d4d00844a",
    "_id": "63446185adb5727d4d008480"
  },
  {
    "name": "명동밀리오레 앞",
    "longitude": "126.9861109",
    "latitude": "37.56488123",
    "guId": "63441c64be26106c41c6d749",
    "dongId": "63445ab0adb5727d4d00844a",
    "_id": "63446185adb5727d4d008481"
  },
  {
    "name": "129동 앞 놀이터",
    "longitude": "126.8758257",
    "latitude": "37.53677908",
    "guId": "63441c24be26106c41c6d744",
    "dongId": "63445ab0adb5727d4d00836a",
    "_id": "63446185adb5727d4d008482"
  },
  {
    "name": "120동, 125동 소나무숲",
    "longitude": "126.8758257",
    "latitude": "37.53677908",
    "guId": "63441c24be26106c41c6d744",
    "dongId": "63445ab0adb5727d4d00836a",
    "_id": "63446185adb5727d4d008483"
  },
  {
    "name": "206동 뒤",
    "longitude": "126.8758257",
    "latitude": "37.53677908",
    "guId": "63441c24be26106c41c6d744",
    "dongId": "63445ab0adb5727d4d00836a",
    "_id": "63446185adb5727d4d008484"
  },
  {
    "name": "하나은행 건너편",
    "longitude": "126.8758257",
    "latitude": "37.53677908",
    "guId": "63441c24be26106c41c6d744",
    "dongId": "63445ab0adb5727d4d00836a",
    "_id": "63446185adb5727d4d008485"
  },
  {
    "name": "109동, 111동 옆 도로",
    "longitude": "126.8758257",
    "latitude": "37.53677908",
    "guId": "63441c24be26106c41c6d744",
    "dongId": "63445ab0adb5727d4d00836a",
    "_id": "63446185adb5727d4d008486"
  },
  {
    "name": "현대아트빌라 앞",
    "longitude": "127.0209401",
    "latitude": "37.62191076",
    "guId": "6344187ebe26106c41c6d734",
    "dongId": "63445ab0adb5727d4d0082a7",
    "_id": "63446185adb5727d4d008487"
  },
  {
    "name": "미아3동 성당주차장",
    "longitude": "127.0209401",
    "latitude": "37.62191076",
    "guId": "6344187ebe26106c41c6d734",
    "dongId": "63445ab0adb5727d4d0082a7",
    "_id": "63446185adb5727d4d008488"
  },
  {
    "name": "경향신문 보급소앞",
    "longitude": "127.0209401",
    "latitude": "37.62191076",
    "guId": "6344187ebe26106c41c6d734",
    "dongId": "63445ab0adb5727d4d0082a7",
    "_id": "63446185adb5727d4d008489"
  },
  {
    "name": "성신병원 앞",
    "longitude": "127.0209401",
    "latitude": "37.62191076",
    "guId": "6344187ebe26106c41c6d734",
    "dongId": "63445ab0adb5727d4d0082a7",
    "_id": "63446185adb5727d4d00848a"
  },
  {
    "name": "Joy & Mart 앞",
    "longitude": "127.0209401",
    "latitude": "37.62191076",
    "guId": "6344187ebe26106c41c6d734",
    "dongId": "63445ab0adb5727d4d0082a7",
    "_id": "63446185adb5727d4d00848b"
  },
  {
    "name": "반포초등학교 앞",
    "longitude": "127.0023271",
    "latitude": "37.5046175",
    "guId": "63441bedbe26106c41c6d740",
    "dongId": "63445ab0adb5727d4d008322",
    "_id": "63446185adb5727d4d00848c"
  },
  {
    "name": "반포주공20동 앞",
    "longitude": "127.0023271",
    "latitude": "37.5046175",
    "guId": "63441bedbe26106c41c6d740",
    "dongId": "63445ab0adb5727d4d008322",
    "_id": "63446185adb5727d4d00848d"
  },
  {
    "name": "반포정육점 앞",
    "longitude": "127.0023271",
    "latitude": "37.5046175",
    "guId": "63441bedbe26106c41c6d740",
    "dongId": "63445ab0adb5727d4d008322",
    "_id": "63446185adb5727d4d00848e"
  },
  {
    "name": "아주약국 앞",
    "longitude": "127.0023271",
    "latitude": "37.5046175",
    "guId": "63441bedbe26106c41c6d740",
    "dongId": "63445ab0adb5727d4d008322",
    "_id": "63446185adb5727d4d00848f"
  },
  {
    "name": "동원인테리어",
    "longitude": "127.0023271",
    "latitude": "37.5046175",
    "guId": "63441bedbe26106c41c6d740",
    "dongId": "63445ab0adb5727d4d008322",
    "_id": "63446185adb5727d4d008490"
  },
  {
    "name": "한신아파트 374동 옆",
    "longitude": "127.0023271",
    "latitude": "37.5046175",
    "guId": "63441bedbe26106c41c6d740",
    "dongId": "63445ab0adb5727d4d008322",
    "_id": "63446185adb5727d4d008491"
  },
  {
    "name": "한신 8차 노인정 앞",
    "longitude": "127.0023271",
    "latitude": "37.5046175",
    "guId": "63441bedbe26106c41c6d740",
    "dongId": "63445ab0adb5727d4d008322",
    "_id": "63446185adb5727d4d008492"
  },
  {
    "name": "한양아파트2동옆 노인정",
    "longitude": "127.0023271",
    "latitude": "37.5046175",
    "guId": "63441bedbe26106c41c6d740",
    "dongId": "63445ab0adb5727d4d008322",
    "_id": "63446185adb5727d4d008493"
  },
  {
    "name": "경원중학교 후문 앞",
    "longitude": "127.0023271",
    "latitude": "37.5046175",
    "guId": "63441bedbe26106c41c6d740",
    "dongId": "63445ab0adb5727d4d008322",
    "_id": "63446185adb5727d4d008494"
  },
  {
    "name": "반포한양아파트 입구 시계 앞",
    "longitude": "127.0023271",
    "latitude": "37.5046175",
    "guId": "63441bedbe26106c41c6d740",
    "dongId": "63445ab0adb5727d4d008322",
    "_id": "63446185adb5727d4d008495"
  },
  {
    "name": "올림픽 경륜장 옆",
    "longitude": "127.1272223",
    "latitude": "37.51632496",
    "guId": "63441c14be26106c41c6d743",
    "dongId": "63445ab0adb5727d4d008367",
    "_id": "63446185adb5727d4d008496"
  },
  {
    "name": "수영장 앞",
    "longitude": "127.1272223",
    "latitude": "37.51632496",
    "guId": "63441c14be26106c41c6d743",
    "dongId": "63445ab0adb5727d4d008367",
    "_id": "63446185adb5727d4d008497"
  },
  {
    "name": "음악분수 앞",
    "longitude": "127.1272223",
    "latitude": "37.51632496",
    "guId": "63441c14be26106c41c6d743",
    "dongId": "63445ab0adb5727d4d008367",
    "_id": "63446185adb5727d4d008498"
  },
  {
    "name": "올림픽파크 호텔주차장",
    "longitude": "127.1272223",
    "latitude": "37.51632496",
    "guId": "63441c14be26106c41c6d743",
    "dongId": "63445ab0adb5727d4d008367",
    "_id": "63446185adb5727d4d008499"
  },
  {
    "name": "동1문 입구",
    "longitude": "127.1272223",
    "latitude": "37.51632496",
    "guId": "63441c14be26106c41c6d743",
    "dongId": "63445ab0adb5727d4d008367",
    "_id": "63446185adb5727d4d00849a"
  },
  {
    "name": "한양이발소",
    "longitude": "126.9474938",
    "latitude": "37.56133852",
    "guId": "63441bbbbe26106c41c6d73f",
    "dongId": "63445ab0adb5727d4d00830b",
    "_id": "63446185adb5727d4d00849b"
  },
  {
    "name": "삼익아파트 앞",
    "longitude": "126.9474938",
    "latitude": "37.56133852",
    "guId": "63441bbbbe26106c41c6d73f",
    "dongId": "63445ab0adb5727d4d00830b",
    "_id": "63446185adb5727d4d00849c"
  },
  {
    "name": "우리은행 앞",
    "longitude": "126.9474938",
    "latitude": "37.56133852",
    "guId": "63441bbbbe26106c41c6d73f",
    "dongId": "63445ab0adb5727d4d00830b",
    "_id": "63446185adb5727d4d00849d"
  },
  {
    "name": "아현감리교회 앞",
    "longitude": "126.9474938",
    "latitude": "37.56133852",
    "guId": "63441bbbbe26106c41c6d73f",
    "dongId": "63445ab0adb5727d4d00830b",
    "_id": "63446185adb5727d4d00849e"
  },
  {
    "name": "영산어린이집 앞",
    "longitude": "126.9354269",
    "latitude": "37.61910738",
    "guId": "63441c4cbe26106c41c6d747",
    "dongId": "63445ab0adb5727d4d0083b1",
    "_id": "63446185adb5727d4d00849f"
  },
  {
    "name": "한창주택 앞",
    "longitude": "126.9354269",
    "latitude": "37.61910738",
    "guId": "63441c4cbe26106c41c6d747",
    "dongId": "63445ab0adb5727d4d0083b1",
    "_id": "63446185adb5727d4d0084a0"
  },
  {
    "name": "불광초교후문 앞",
    "longitude": "126.9354269",
    "latitude": "37.61910738",
    "guId": "63441c4cbe26106c41c6d747",
    "dongId": "63445ab0adb5727d4d0083b1",
    "_id": "63446185adb5727d4d0084a1"
  },
  {
    "name": "기업은행 앞",
    "longitude": "126.9354269",
    "latitude": "37.61910738",
    "guId": "63441c4cbe26106c41c6d747",
    "dongId": "63445ab0adb5727d4d0083b1",
    "_id": "63446185adb5727d4d0084a2"
  },
  {
    "name": "LG베스트샵",
    "longitude": "126.9354269",
    "latitude": "37.61910738",
    "guId": "63441c4cbe26106c41c6d747",
    "dongId": "63445ab0adb5727d4d0083b1",
    "_id": "63446185adb5727d4d0084a3"
  },
  {
    "name": "312동, 314동 사이",
    "longitude": "127.0722769",
    "latitude": "37.66636668",
    "guId": "63441b80be26106c41c6d73a",
    "dongId": "63445ab0adb5727d4d0082d3",
    "_id": "63446185adb5727d4d0084a4"
  },
  {
    "name": "509동 뒤",
    "longitude": "127.0722769",
    "latitude": "37.66636668",
    "guId": "63441b80be26106c41c6d73a",
    "dongId": "63445ab0adb5727d4d0082d3",
    "_id": "63446185adb5727d4d0084a5"
  },
  {
    "name": "215동 굴뚝 옆",
    "longitude": "127.0722769",
    "latitude": "37.66636668",
    "guId": "63441b80be26106c41c6d73a",
    "dongId": "63445ab0adb5727d4d0082d3",
    "_id": "63446185adb5727d4d0084a6"
  },
  {
    "name": "501동 앞 도로",
    "longitude": "127.0722769",
    "latitude": "37.66636668",
    "guId": "63441b80be26106c41c6d73a",
    "dongId": "63445ab0adb5727d4d0082d3",
    "_id": "63446185adb5727d4d0084a7"
  },
  {
    "name": "308동앞#14가로등 밑",
    "longitude": "127.0722769",
    "latitude": "37.66636668",
    "guId": "63441b80be26106c41c6d73a",
    "dongId": "63445ab0adb5727d4d0082d3",
    "_id": "63446185adb5727d4d0084a8"
  },
  {
    "name": "상도3동 방범초소 앞",
    "longitude": "126.9402818",
    "latitude": "37.49960695",
    "guId": "63441ba9be26106c41c6d73d",
    "dongId": "63445ab0adb5727d4d0082e2",
    "_id": "63446185adb5727d4d0084a9"
  },
  {
    "name": "빙수골공영주차장",
    "longitude": "126.9402818",
    "latitude": "37.49960695",
    "guId": "63441ba9be26106c41c6d73d",
    "dongId": "63445ab0adb5727d4d0082e2",
    "_id": "63446185adb5727d4d0084aa"
  },
  {
    "name": "청원보육원 마당",
    "longitude": "126.9402818",
    "latitude": "37.49960695",
    "guId": "63441ba9be26106c41c6d73d",
    "dongId": "63445ab0adb5727d4d0082e2",
    "_id": "63446185adb5727d4d0084ab"
  },
  {
    "name": "하나은행 상도지점 앞",
    "longitude": "126.9402818",
    "latitude": "37.49960695",
    "guId": "63441ba9be26106c41c6d73d",
    "dongId": "63445ab0adb5727d4d0082e2",
    "_id": "63446185adb5727d4d0084ac"
  },
  {
    "name": "대방의원 앞",
    "longitude": "126.9402818",
    "latitude": "37.49960695",
    "guId": "63441ba9be26106c41c6d73d",
    "dongId": "63445ab0adb5727d4d0082e2",
    "_id": "63446185adb5727d4d0084ad"
  },
  {
    "name": "어린이 놀이터",
    "longitude": "126.9239551",
    "latitude": "37.55831827",
    "guId": "63441bb4be26106c41c6d73e",
    "dongId": "63445ab0adb5727d4d0082ff",
    "_id": "63446185adb5727d4d0084ae"
  },
  {
    "name": "서현교회 앞마당",
    "longitude": "126.9239551",
    "latitude": "37.55831827",
    "guId": "63441bb4be26106c41c6d73e",
    "dongId": "63445ab0adb5727d4d0082ff",
    "_id": "63446185adb5727d4d0084af"
  },
  {
    "name": "그린마트",
    "longitude": "126.9239551",
    "latitude": "37.55831827",
    "guId": "63441bb4be26106c41c6d73e",
    "dongId": "63445ab0adb5727d4d0082ff",
    "_id": "63446185adb5727d4d0084b0"
  },
  {
    "name": "화승빌딩 앞",
    "longitude": "126.9239551",
    "latitude": "37.55831827",
    "guId": "63441bb4be26106c41c6d73e",
    "dongId": "63445ab0adb5727d4d0082ff",
    "_id": "63446185adb5727d4d0084b1"
  },
  {
    "name": "우리은행앞",
    "longitude": "126.9239551",
    "latitude": "37.55831827",
    "guId": "63441bb4be26106c41c6d73e",
    "dongId": "63445ab0adb5727d4d0082ff",
    "_id": "63446185adb5727d4d0084b2"
  },
  {
    "name": "미광자동차공업사",
    "longitude": "126.933092",
    "latitude": "37.58280877",
    "guId": "63441bbbbe26106c41c6d73f",
    "dongId": "63445ab0adb5727d4d00830b",
    "_id": "63446185adb5727d4d0084b3"
  },
  {
    "name": "다이소 종압정 건너편",
    "longitude": "127.0280535",
    "latitude": "37.60709913",
    "guId": "63441c0cbe26106c41c6d742",
    "dongId": "63445ab0adb5727d4d008354",
    "_id": "63446185adb5727d4d0084b4"
  },
  {
    "name": "스웨덴대사관 앞",
    "longitude": "127.0035905",
    "latitude": "37.58955132",
    "guId": "63441c0cbe26106c41c6d742",
    "dongId": "63445ab0adb5727d4d008335",
    "_id": "63446185adb5727d4d0084b5"
  },
  {
    "name": "호주대사관저 앞",
    "longitude": "127.0035905",
    "latitude": "37.58955132",
    "guId": "63441c0cbe26106c41c6d742",
    "dongId": "63445ab0adb5727d4d008335",
    "_id": "63446185adb5727d4d0084b6"
  },
  {
    "name": "제일퍼크로크리닝",
    "longitude": "127.0035905",
    "latitude": "37.58955132",
    "guId": "63441c0cbe26106c41c6d742",
    "dongId": "63445ab0adb5727d4d008335",
    "_id": "63446185adb5727d4d0084b7"
  },
  {
    "name": "쌍다리기사식당 앞",
    "longitude": "127.0035905",
    "latitude": "37.58955132",
    "guId": "63441c0cbe26106c41c6d742",
    "dongId": "63445ab0adb5727d4d008335",
    "_id": "63446185adb5727d4d0084b8"
  },
  {
    "name": "작은갤러리",
    "longitude": "127.0035905",
    "latitude": "37.58955132",
    "guId": "63441c0cbe26106c41c6d742",
    "dongId": "63445ab0adb5727d4d008335",
    "_id": "63446185adb5727d4d0084b9"
  },
  {
    "name": "성수종로약국",
    "longitude": "127.041551",
    "latitude": "37.54303055",
    "guId": "63441bfabe26106c41c6d741",
    "dongId": "63445ab0adb5727d4d008331",
    "_id": "63446185adb5727d4d0084ba"
  },
  {
    "name": "현대자동차동부사업소",
    "longitude": "127.041551",
    "latitude": "37.54303055",
    "guId": "63441bfabe26106c41c6d741",
    "dongId": "63445ab0adb5727d4d008331",
    "_id": "63446185adb5727d4d0084bb"
  },
  {
    "name": "우란문화재단",
    "longitude": "127.041551",
    "latitude": "37.54303055",
    "guId": "63441bfabe26106c41c6d741",
    "dongId": "63445ab0adb5727d4d008331",
    "_id": "63446185adb5727d4d0084bc"
  },
  {
    "name": "제일빌딩",
    "longitude": "127.041551",
    "latitude": "37.54303055",
    "guId": "63441bfabe26106c41c6d741",
    "dongId": "63445ab0adb5727d4d008331",
    "_id": "63446185adb5727d4d0084bd"
  },
  {
    "name": "대림창고 앞",
    "longitude": "127.041551",
    "latitude": "37.54303055",
    "guId": "63441bfabe26106c41c6d741",
    "dongId": "63445ab0adb5727d4d008331",
    "_id": "63446185adb5727d4d0084be"
  },
  {
    "name": "신도테크",
    "longitude": "126.8829518",
    "latitude": "37.51059452",
    "guId": "63441a94be26106c41c6d738",
    "dongId": "63445ab0adb5727d4d0082c8",
    "_id": "63446185adb5727d4d0084bf"
  },
  {
    "name": "국민은행 앞",
    "longitude": "126.8829518",
    "latitude": "37.51059452",
    "guId": "63441a94be26106c41c6d738",
    "dongId": "63445ab0adb5727d4d0082c8",
    "_id": "63446185adb5727d4d0084c0"
  },
  {
    "name": "상원고시독서실 앞",
    "longitude": "126.9346071",
    "latitude": "37.4630596",
    "guId": "63441a58be26106c41c6d736",
    "dongId": "63445ab0adb5727d4d0082b9",
    "_id": "63446185adb5727d4d0084c1"
  },
  {
    "name": "모던하우스 앞",
    "longitude": "126.9346071",
    "latitude": "37.4630596",
    "guId": "63441a58be26106c41c6d736",
    "dongId": "63445ab0adb5727d4d0082b9",
    "_id": "63446185adb5727d4d0084c2"
  },
  {
    "name": "선경부동산 앞",
    "longitude": "126.9346071",
    "latitude": "37.4630596",
    "guId": "63441a58be26106c41c6d736",
    "dongId": "63445ab0adb5727d4d0082b9",
    "_id": "63446185adb5727d4d0084c3"
  },
  {
    "name": "신림9동사무소 앞",
    "longitude": "126.9346071",
    "latitude": "37.4630596",
    "guId": "63441a58be26106c41c6d736",
    "dongId": "63445ab0adb5727d4d0082b9",
    "_id": "63446185adb5727d4d0084c4"
  },
  {
    "name": "한림 공무원학원앞",
    "longitude": "126.9346071",
    "latitude": "37.4630596",
    "guId": "63441a58be26106c41c6d736",
    "dongId": "63445ab0adb5727d4d0082b9",
    "_id": "63446185adb5727d4d0084c5"
  },
  {
    "name": "압구정초교 후문",
    "longitude": "127.0286102",
    "latitude": "37.5227125",
    "guId": "63441486be26106c41c6d732",
    "dongId": "63445ab0adb5727d4d008297",
    "_id": "63446185adb5727d4d0084c6"
  },
  {
    "name": "금강쇼핑 앞",
    "longitude": "127.0286102",
    "latitude": "37.5227125",
    "guId": "63441486be26106c41c6d732",
    "dongId": "63445ab0adb5727d4d008297",
    "_id": "63446185adb5727d4d0084c7"
  },
  {
    "name": "제일은행 앞",
    "longitude": "127.0286102",
    "latitude": "37.5227125",
    "guId": "63441486be26106c41c6d732",
    "dongId": "63445ab0adb5727d4d008297",
    "_id": "63446185adb5727d4d0084c8"
  },
  {
    "name": "원방프라자",
    "longitude": "127.0286102",
    "latitude": "37.5227125",
    "guId": "63441486be26106c41c6d732",
    "dongId": "63445ab0adb5727d4d008297",
    "_id": "63446185adb5727d4d0084c9"
  },
  {
    "name": "하나은행",
    "longitude": "127.0286102",
    "latitude": "37.5227125",
    "guId": "63441486be26106c41c6d732",
    "dongId": "63445ab0adb5727d4d008297",
    "_id": "63446185adb5727d4d0084ca"
  },
  {
    "name": "중앙빌딩 앞",
    "longitude": "126.9294419",
    "latitude": "37.52849122",
    "guId": "63441c31be26106c41c6d745",
    "dongId": "63445ab0adb5727d4d008370",
    "_id": "63446185adb5727d4d0084cb"
  },
  {
    "name": "수정상가 뒤",
    "longitude": "126.9294419",
    "latitude": "37.52849122",
    "guId": "63441c31be26106c41c6d745",
    "dongId": "63445ab0adb5727d4d008370",
    "_id": "63446185adb5727d4d0084cc"
  },
  {
    "name": "한양아파트A동 옆",
    "longitude": "126.9294419",
    "latitude": "37.52849122",
    "guId": "63441c31be26106c41c6d745",
    "dongId": "63445ab0adb5727d4d008370",
    "_id": "63446185adb5727d4d0084cd"
  },
  {
    "name": "KBS2 앞",
    "longitude": "126.9294419",
    "latitude": "37.52849122",
    "guId": "63441c31be26106c41c6d745",
    "dongId": "63445ab0adb5727d4d008370",
    "_id": "63446185adb5727d4d0084ce"
  },
  {
    "name": "시티뱅크 앞",
    "longitude": "126.9294419",
    "latitude": "37.52849122",
    "guId": "63441c31be26106c41c6d745",
    "dongId": "63445ab0adb5727d4d008370",
    "_id": "63446185adb5727d4d0084cf"
  },
  {
    "name": "중앙도서관 국기게양대",
    "longitude": "127.0392152",
    "latitude": "37.49927697",
    "guId": "63441486be26106c41c6d732",
    "dongId": "63445ab0adb5727d4d008292",
    "_id": "63446185adb5727d4d0084d0"
  },
  {
    "name": "국기원 후문",
    "longitude": "127.0392152",
    "latitude": "37.49927697",
    "guId": "63441486be26106c41c6d732",
    "dongId": "63445ab0adb5727d4d008292",
    "_id": "63446185adb5727d4d0084d1"
  },
  {
    "name": "Bigten House 앞",
    "longitude": "127.0392152",
    "latitude": "37.49927697",
    "guId": "63441486be26106c41c6d732",
    "dongId": "63445ab0adb5727d4d008292",
    "_id": "63446185adb5727d4d0084d2"
  },
  {
    "name": "에스코빌딩 앞",
    "longitude": "127.0392152",
    "latitude": "37.49927697",
    "guId": "63441486be26106c41c6d732",
    "dongId": "63445ab0adb5727d4d008292",
    "_id": "63446185adb5727d4d0084d3"
  },
  {
    "name": "7eleven앞",
    "longitude": "127.0392152",
    "latitude": "37.49927697",
    "guId": "63441486be26106c41c6d732",
    "dongId": "63445ab0adb5727d4d008292",
    "_id": "63446185adb5727d4d0084d4"
  },
  {
    "name": "정민약국앞",
    "longitude": "126.9994743",
    "latitude": "37.57852163",
    "guId": "63441c55be26106c41c6d748",
    "dongId": "63445ab0adb5727d4d0083e6",
    "_id": "63446185adb5727d4d0084d5"
  },
  {
    "name": "병원 시계탑 건물 앞",
    "longitude": "126.9994743",
    "latitude": "37.57852163",
    "guId": "63441c55be26106c41c6d748",
    "dongId": "63445ab0adb5727d4d0083e6",
    "_id": "63446185adb5727d4d0084d6"
  },
  {
    "name": "간호사 기숙사 옆",
    "longitude": "126.9994743",
    "latitude": "37.57852163",
    "guId": "63441c55be26106c41c6d748",
    "dongId": "63445ab0adb5727d4d0083e6",
    "_id": "63446185adb5727d4d0084d7"
  },
  {
    "name": "히포크라테스 동상 옆",
    "longitude": "126.9994743",
    "latitude": "37.57852163",
    "guId": "63441c55be26106c41c6d748",
    "dongId": "63445ab0adb5727d4d0083e6",
    "_id": "63446185adb5727d4d0084d8"
  },
  {
    "name": "치과병원 주차장 옆",
    "longitude": "126.9994743",
    "latitude": "37.57852163",
    "guId": "63441c55be26106c41c6d748",
    "dongId": "63445ab0adb5727d4d0083e6",
    "_id": "63446185adb5727d4d0084d9"
  },
  {
    "name": "신중앙예식장 앞",
    "longitude": "126.9036488",
    "latitude": "37.51785639",
    "guId": "63441c31be26106c41c6d745",
    "dongId": "63445ab0adb5727d4d00836f",
    "_id": "63446185adb5727d4d0084da"
  },
  {
    "name": "맥스모텔 앞",
    "longitude": "126.9036488",
    "latitude": "37.51785639",
    "guId": "63441c31be26106c41c6d745",
    "dongId": "63445ab0adb5727d4d00836f",
    "_id": "63446185adb5727d4d0084db"
  },
  {
    "name": "성남빌딩 옆",
    "longitude": "126.9036488",
    "latitude": "37.51785639",
    "guId": "63441c31be26106c41c6d745",
    "dongId": "63445ab0adb5727d4d00836f",
    "_id": "63446185adb5727d4d0084dc"
  },
  {
    "name": "농협영등포지점앞",
    "longitude": "126.9036488",
    "latitude": "37.51785639",
    "guId": "63441c31be26106c41c6d745",
    "dongId": "63445ab0adb5727d4d00836f",
    "_id": "63446185adb5727d4d0084dd"
  },
  {
    "name": "국민은행 앞",
    "longitude": "126.9036488",
    "latitude": "37.51785639",
    "guId": "63441c31be26106c41c6d745",
    "dongId": "63445ab0adb5727d4d00836f",
    "_id": "63446185adb5727d4d0084de"
  },
  {
    "name": "백해영갤러리",
    "longitude": "126.9804724",
    "latitude": "37.53114116",
    "guId": "63441c40be26106c41c6d746",
    "dongId": "63445ab0adb5727d4d0083a4",
    "_id": "63446185adb5727d4d0084df"
  },
  {
    "name": "인도대사관저",
    "longitude": "126.9804724",
    "latitude": "37.53114116",
    "guId": "63441c40be26106c41c6d746",
    "dongId": "63445ab0adb5727d4d0083a7",
    "_id": "63446185adb5727d4d0084e0"
  },
  {
    "name": "주한벨기에대사관",
    "longitude": "126.9804724",
    "latitude": "37.53114116",
    "guId": "63441c40be26106c41c6d746",
    "dongId": "63445ab0adb5727d4d0083a7",
    "_id": "63446185adb5727d4d0084e1"
  },
  {
    "name": "왕의장어",
    "longitude": "127.0048047",
    "latitude": "37.6370593",
    "guId": "6344187ebe26106c41c6d734",
    "dongId": "63445ab0adb5727d4d0082aa",
    "_id": "63446185adb5727d4d0084e2"
  },
  {
    "name": "한일교",
    "longitude": "127.0048047",
    "latitude": "37.6370593",
    "guId": "6344187ebe26106c41c6d734",
    "dongId": "63445ab0adb5727d4d0082aa",
    "_id": "63446185adb5727d4d0084e3"
  },
  {
    "name": "온누리약국",
    "longitude": "127.0048047",
    "latitude": "37.6370593",
    "guId": "6344187ebe26106c41c6d734",
    "dongId": "63445ab0adb5727d4d0082aa",
    "_id": "63446185adb5727d4d0084e4"
  },
  {
    "name": "그린파크 앞",
    "longitude": "127.0048047",
    "latitude": "37.6370593",
    "guId": "6344187ebe26106c41c6d734",
    "dongId": "63445ab0adb5727d4d0082aa",
    "_id": "63446185adb5727d4d0084e5"
  },
  {
    "name": "크라운호텔 앞",
    "longitude": "126.991128",
    "latitude": "37.53884125",
    "guId": "63441c40be26106c41c6d746",
    "dongId": "63445ab0adb5727d4d0083a4",
    "_id": "63446185adb5727d4d0084e6"
  },
  {
    "name": "스타벅스 앞",
    "longitude": "126.991128",
    "latitude": "37.53884125",
    "guId": "63441c40be26106c41c6d746",
    "dongId": "63445ab0adb5727d4d0083a4",
    "_id": "63446185adb5727d4d0084e7"
  },
  {
    "name": "농협 맞은편",
    "longitude": "127.0332363",
    "latitude": "37.59656592",
    "guId": "63441c0cbe26106c41c6d742",
    "dongId": "63445ab0adb5727d4d008354",
    "_id": "63446185adb5727d4d0084e8"
  },
  {
    "name": "종암교회 앞",
    "longitude": "127.0332363",
    "latitude": "37.59656592",
    "guId": "63441c0cbe26106c41c6d742",
    "dongId": "63445ab0adb5727d4d008354",
    "_id": "63446185adb5727d4d0084e9"
  },
  {
    "name": "버거킹",
    "longitude": "127.0332363",
    "latitude": "37.59656592",
    "guId": "63441c0cbe26106c41c6d742",
    "dongId": "63445ab0adb5727d4d008354",
    "_id": "63446185adb5727d4d0084ea"
  },
  {
    "name": "무판안경",
    "longitude": "127.0332363",
    "latitude": "37.59656592",
    "guId": "63441c0cbe26106c41c6d742",
    "dongId": "63445ab0adb5727d4d008354",
    "_id": "63446185adb5727d4d0084eb"
  },
  {
    "name": "현대문화센타앞",
    "longitude": "127.127541",
    "latitude": "37.54312229",
    "guId": "6344186cbe26106c41c6d733",
    "dongId": "63445ab0adb5727d4d0082a5",
    "_id": "63446185adb5727d4d0084ec"
  },
  {
    "name": "코오롱 상가아파트 옆",
    "longitude": "127.127541",
    "latitude": "37.54312229",
    "guId": "6344186cbe26106c41c6d733",
    "dongId": "63445ab0adb5727d4d0082a5",
    "_id": "63446185adb5727d4d0084ed"
  },
  {
    "name": "삼성홈플러스앞",
    "longitude": "127.127541",
    "latitude": "37.54312229",
    "guId": "6344186cbe26106c41c6d733",
    "dongId": "63445ab0adb5727d4d0082a5",
    "_id": "63446185adb5727d4d0084ee"
  },
  {
    "name": "이마트 앞",
    "longitude": "127.127541",
    "latitude": "37.54312229",
    "guId": "6344186cbe26106c41c6d733",
    "dongId": "63445ab0adb5727d4d0082a5",
    "_id": "63446185adb5727d4d0084ef"
  },
  {
    "name": "농협 천호동지점 주차장",
    "longitude": "127.127541",
    "latitude": "37.54312229",
    "guId": "6344186cbe26106c41c6d733",
    "dongId": "63445ab0adb5727d4d0082a5",
    "_id": "63446185adb5727d4d0084f0"
  },
  {
    "name": "화곡3동사무소 앞",
    "longitude": "126.8441304",
    "latitude": "37.54216688",
    "guId": "63441a3ebe26106c41c6d735",
    "dongId": "63445ab0adb5727d4d0082ad",
    "_id": "63446185adb5727d4d0084f1"
  },
  {
    "name": "소비자유통앞",
    "longitude": "126.8441304",
    "latitude": "37.54216688",
    "guId": "63441a3ebe26106c41c6d735",
    "dongId": "63445ab0adb5727d4d0082ad",
    "_id": "63446185adb5727d4d0084f2"
  },
  {
    "name": "반석교회옆",
    "longitude": "126.8441304",
    "latitude": "37.54216688",
    "guId": "63441a3ebe26106c41c6d735",
    "dongId": "63445ab0adb5727d4d0082ad",
    "_id": "63446185adb5727d4d0084f3"
  },
  {
    "name": "성하주유소앞",
    "longitude": "126.8441304",
    "latitude": "37.54216688",
    "guId": "63441a3ebe26106c41c6d735",
    "dongId": "63445ab0adb5727d4d0082ad",
    "_id": "63446185adb5727d4d0084f4"
  },
  {
    "name": "신한은행 앞",
    "longitude": "126.8441304",
    "latitude": "37.54216688",
    "guId": "63441a3ebe26106c41c6d735",
    "dongId": "63445ab0adb5727d4d0082ad",
    "_id": "63446185adb5727d4d0084f5"
  },
  {
    "name": "경희약국 앞",
    "longitude": "127.0509581",
    "latitude": "37.59453657",
    "guId": "63441b98be26106c41c6d73c",
    "dongId": "63445ab0adb5727d4d0082df",
    "_id": "63446185adb5727d4d0084f6"
  },
  {
    "name": "연화사 앞",
    "longitude": "127.0509581",
    "latitude": "37.59453657",
    "guId": "63441b98be26106c41c6d73c",
    "dongId": "63445ab0adb5727d4d0082df",
    "_id": "63446185adb5727d4d0084f7"
  },
  {
    "name": "로이드 앞",
    "longitude": "127.0509581",
    "latitude": "37.59453657",
    "guId": "63441b98be26106c41c6d73c",
    "dongId": "63445ab0adb5727d4d0082df",
    "_id": "63446185adb5727d4d0084f8"
  },
  {
    "name": "경희대정문 옆",
    "longitude": "127.0509581",
    "latitude": "37.59453657",
    "guId": "63441b98be26106c41c6d73c",
    "dongId": "63445ab0adb5727d4d0082df",
    "_id": "63446185adb5727d4d0084f9"
  }
]
