[
  {
    "_id": "63446185adb5727d4d008467",
    "name": "동산불교회관",
    "longitude": 126.9832211,
    "latitude": 37.57372618,
    "guId": "63441c55be26106c41c6d748",
    "dongId": "63445ab0adb5727d4d0083c4",
    "timeDecibels": [59.783, 59.381, 58.229, 56.639, 51.73, 50.015]
  },
  {
    "_id": "63446185adb5727d4d00846f",
    "name": "중대부고 앞",
    "longitude": 127.0657834,
    "latitude": 37.49885733,
    "guId": "63441486be26106c41c6d732",
    "dongId": "63445ab0adb5727d4d008293",
    "timeDecibels": [62.814, 60.615, 56.901, 52.096, 50.273, 46.382]
  },
  {
    "_id": "63446185adb5727d4d008471",
    "name": "대도초교 앞",
    "longitude": 127.0657834,
    "latitude": 37.49885733,
    "guId": "63441486be26106c41c6d732",
    "dongId": "63445ab0adb5727d4d008293",
    "timeDecibels": [72.837, 77.35, 72.852, 72.73, 70.328, 63.158]
  },
  {
    "_id": "63446185adb5727d4d008473",
    "name": "정도화성(주) 앞",
    "longitude": 126.9007561,
    "latitude": 37.46643569,
    "guId": "63441aa3be26106c41c6d739",
    "dongId": "63445ab0adb5727d4d0082cd",
    "timeDecibels": [61.6, 61.4, 63, 61.4, 55.6, 52.7]
  },
  {
    "_id": "63446185adb5727d4d008476",
    "name": "문창운수 앞",
    "longitude": 126.9007561,
    "latitude": 37.46643569,
    "guId": "63441aa3be26106c41c6d739",
    "dongId": "63445ab0adb5727d4d0082cd",
    "timeDecibels": [75.9, 75.1, 74.2, 73.3, 73.2, 70.9]
  },
  {
    "_id": "63446185adb5727d4d00847c",
    "name": "복개천도로앞",
    "longitude": 127.0904337,
    "latitude": 37.5819082,
    "guId": "63441c78be26106c41c6d74a",
    "dongId": "63445ab0adb5727d4d008462",
    "timeDecibels": [70.5, 70.3, 68.6, 68.4, 68.2, 65.6]
  },
  {
    "_id": "63446185adb5727d4d00847e",
    "name": "명동 오다헤어",
    "longitude": 126.9861109,
    "latitude": 37.56488123,
    "guId": "63441c64be26106c41c6d749",
    "dongId": "63445ab0adb5727d4d00841d",
    "timeDecibels": [62.882, 61.085, 60.822, 65.981, 56.948, 47.233]
  },
  {
    "_id": "63446185adb5727d4d00847f",
    "name": "우리은행 앞(중구)",
    "longitude": 126.9861109,
    "latitude": 37.56488123,
    "guId": "63441c64be26106c41c6d749",
    "dongId": "63445ab0adb5727d4d008459",
    "timeDecibels": [65.329, 64.398, 61.884, 62.324, 68.778, 56.515]
  },
  {
    "_id": "63446185adb5727d4d00848d",
    "name": "반포주공20동 앞",
    "longitude": 127.0023271,
    "latitude": 37.5046175,
    "guId": "63441bedbe26106c41c6d740",
    "dongId": "63445ab0adb5727d4d008322",
    "timeDecibels": [52.869, 50.641, 52.037, 52.736, 42.145, 40.435]
  },
  {
    "_id": "63446185adb5727d4d008493",
    "name": "한양아파트2동옆 노인정",
    "longitude": 127.0023271,
    "latitude": 37.5046175,
    "guId": "63441bedbe26106c41c6d740",
    "dongId": "63445ab0adb5727d4d008322",
    "timeDecibels": [55.2, 56, 50.9, 58.9, 46.9, 43.7]
  },
  {
    "_id": "63446185adb5727d4d008495",
    "name": "반포한양아파트 입구 시계 앞",
    "longitude": 127.0023271,
    "latitude": 37.5046175,
    "guId": "63441bedbe26106c41c6d740",
    "dongId": "63445ab0adb5727d4d008322",
    "timeDecibels": [63.9, 66.1, 66.5, 66.2, 60.8, 59.9]
  },
  {
    "_id": "63446185adb5727d4d008498",
    "name": "음악분수 앞",
    "longitude": 127.1272223,
    "latitude": 37.51632496,
    "guId": "63441c14be26106c41c6d743",
    "dongId": "63445ab0adb5727d4d008367",
    "timeDecibels": [0, 0, 0, 0, 0, 0]
  },
  {
    "_id": "63446185adb5727d4d00849d",
    "name": "우리은행 앞(서대문구)",
    "longitude": 126.9474938,
    "latitude": 37.56133852,
    "guId": "63441bbbbe26106c41c6d73f",
    "dongId": "63445ab0adb5727d4d00830b",
    "timeDecibels": [70.386, 71.371, 80.334, 70.109, 68.386, 65.41]
  },
  {
    "_id": "63446185adb5727d4d00849e",
    "name": "아현감리교회 앞",
    "longitude": 126.9474938,
    "latitude": 37.56133852,
    "guId": "63441bbbbe26106c41c6d73f",
    "dongId": "63445ab0adb5727d4d00830b",
    "timeDecibels": [72.227, 72.596, 74.296, 71.542, 70.979, 68.539]
  },
  {
    "_id": "63446185adb5727d4d0084a2",
    "name": "기업은행 앞",
    "longitude": 126.9354269,
    "latitude": 37.61910738,
    "guId": "63441c4cbe26106c41c6d747",
    "dongId": "63445ab0adb5727d4d0083b1",
    "timeDecibels": [73.608, 72.272, 72.382, 70.864, 72.623, 70.731]
  },
  {
    "_id": "63446185adb5727d4d0084a4",
    "name": "312동, 314동 사이",
    "longitude": 127.0722769,
    "latitude": 37.66636668,
    "guId": "63441b80be26106c41c6d73a",
    "dongId": "63445ab0adb5727d4d0082d3",
    "timeDecibels": [53.7, 58.4, 57.1, 54.8, 53.5, 50.5]
  },
  {
    "_id": "63446185adb5727d4d0084aa",
    "name": "빙수골공영주차장",
    "longitude": 126.9402818,
    "latitude": 37.49960695,
    "guId": "63441ba9be26106c41c6d73d",
    "dongId": "63445ab0adb5727d4d0082e2",
    "timeDecibels": [63.8, 62.8, 63.6, 62.6, 61.5, 59.3]
  },
  {
    "_id": "63446185adb5727d4d0084af",
    "name": "서현교회 앞마당",
    "longitude": 126.9239551,
    "latitude": 37.55831827,
    "guId": "63441bb4be26106c41c6d73e",
    "dongId": "63445ab0adb5727d4d0082ff",
    "timeDecibels": [55.8, 51.9, 55.6, 54.2, 49.1, 47]
  },
  {
    "_id": "63446185adb5727d4d0084b0",
    "name": "그린마트",
    "longitude": 126.9239551,
    "latitude": 37.55831827,
    "guId": "63441bb4be26106c41c6d73e",
    "dongId": "63445ab0adb5727d4d0082ff",
    "timeDecibels": [57.4, 61.8, 65.4, 62.8, 51.8, 53.5]
  },
  {
    "_id": "63446185adb5727d4d0084b1",
    "name": "화승빌딩 앞",
    "longitude": 126.9239551,
    "latitude": 37.55831827,
    "guId": "63441bb4be26106c41c6d73e",
    "dongId": "63445ab0adb5727d4d0082ff",
    "timeDecibels": [68.6, 67.9, 67, 64.8, 68.5, 68]
  },
  {
    "_id": "63446185adb5727d4d0084b3",
    "name": "미광자동차공업사",
    "longitude": 126.933092,
    "latitude": 37.58280877,
    "guId": "63441bbbbe26106c41c6d73f",
    "dongId": "63445ab0adb5727d4d00830b",
    "timeDecibels": [54.723, 55.681, 54.096, 56.081, 49.38, 42.458]
  },
  {
    "_id": "63446185adb5727d4d0084b2",
    "name": "우리은행 앞(마포구)",
    "longitude": 126.9239551,
    "latitude": 37.55831827,
    "guId": "63441bb4be26106c41c6d73e",
    "dongId": "63445ab0adb5727d4d0082ff",
    "timeDecibels": [71.2, 69, 68.5, 67.5, 67.6, 63]
  },
  {
    "_id": "63446185adb5727d4d0084bb",
    "name": "현대자동차동부사업소",
    "longitude": 127.041551,
    "latitude": 37.54303055,
    "guId": "63441bfabe26106c41c6d741",
    "dongId": "63445ab0adb5727d4d008331",
    "timeDecibels": [64.723, 64.614, 64.337, 64.739, 58.213, 56.751]
  },
  {
    "_id": "63446185adb5727d4d0084bc",
    "name": "우란문화재단",
    "longitude": 127.041551,
    "latitude": 37.54303055,
    "guId": "63441bfabe26106c41c6d741",
    "dongId": "63445ab0adb5727d4d008331",
    "timeDecibels": [64.788, 62.368, 62.125, 61.618, 55.645, 53.267]
  },
  {
    "_id": "63446185adb5727d4d0084c4",
    "name": "신림9동사무소 앞",
    "longitude": 126.9346071,
    "latitude": 37.4630596,
    "guId": "63441a58be26106c41c6d736",
    "dongId": "63445ab0adb5727d4d0082b9",
    "timeDecibels": [71, 71.5, 71.7, 72.2, 70.1, 68.3]
  },
  {
    "_id": "63446185adb5727d4d0084c8",
    "name": "제일은행 앞",
    "longitude": 127.0286102,
    "latitude": 37.5227125,
    "guId": "63441486be26106c41c6d732",
    "dongId": "63445ab0adb5727d4d008297",
    "timeDecibels": [61.641, 62.3, 60.145, 61.257, 50.935, 47.69]
  },
  {
    "_id": "63446185adb5727d4d0084c9",
    "name": "원방프라자",
    "longitude": 127.0286102,
    "latitude": 37.5227125,
    "guId": "63441486be26106c41c6d732",
    "dongId": "63445ab0adb5727d4d008297",
    "timeDecibels": [73.903, 72.766, 73.839, 74.749, 70.198, 68.416]
  },
  {
    "_id": "63446185adb5727d4d0084d0",
    "name": "중앙도서관 국기게양대",
    "longitude": 127.0392152,
    "latitude": 37.49927697,
    "guId": "63441486be26106c41c6d732",
    "dongId": "63445ab0adb5727d4d008292",
    "timeDecibels": [0, 0, 0, 0, 0, 0]
  },
  {
    "_id": "63446185adb5727d4d0084d3",
    "name": "에스코빌딩 앞",
    "longitude": 127.0392152,
    "latitude": 37.49927697,
    "guId": "63441486be26106c41c6d732",
    "dongId": "63445ab0adb5727d4d008292",
    "timeDecibels": [68.8, 70.7, 69.6, 68.1, 66.2, 64.9]
  },
  {
    "_id": "63446185adb5727d4d0084d7",
    "name": "간호사 기숙사 옆",
    "longitude": 126.9994743,
    "latitude": 37.57852163,
    "guId": "63441c55be26106c41c6d748",
    "dongId": "63445ab0adb5727d4d0083e6",
    "timeDecibels": [54.7, 52.1, 52.7, 49.5, 47.5, 47.7]
  },
  {
    "_id": "63446185adb5727d4d0084df",
    "name": "백해영갤러리",
    "longitude": 126.9804724,
    "latitude": 37.53114116,
    "guId": "63441c40be26106c41c6d746",
    "dongId": "63445ab0adb5727d4d0083a4",
    "timeDecibels": [62.76, 63.161, 61.902, 63.397, 55.691, 58.669]
  },
  {
    "_id": "63446185adb5727d4d0084ef",
    "name": "이마트 앞",
    "longitude": 127.127541,
    "latitude": 37.54312229,
    "guId": "6344186cbe26106c41c6d733",
    "dongId": "63445ab0adb5727d4d0082a5",
    "timeDecibels": [69.6, 66.2, 67.4, 67.8, 65.7, 65.3]
  },
  {
    "_id": "63446185adb5727d4d0084f2",
    "name": "소비자유통앞",
    "longitude": 126.8441304,
    "latitude": 37.54216688,
    "guId": "63441a3ebe26106c41c6d735",
    "dongId": "63445ab0adb5727d4d0082ad",
    "timeDecibels": [60.9, 61.6, 63, 61.8, 59.8, 56]
  },
  {
    "_id": "63446185adb5727d4d0084f4",
    "name": "성하주유소앞",
    "longitude": 126.8441304,
    "latitude": 37.54216688,
    "guId": "63441a3ebe26106c41c6d735",
    "dongId": "63445ab0adb5727d4d0082ad",
    "timeDecibels": [70.4, 72, 72.3, 78.3, 73.5, 69.6]
  },
  {
    "_id": "63446185adb5727d4d0084f6",
    "name": "경희약국 앞",
    "longitude": 127.0509581,
    "latitude": 37.59453657,
    "guId": "63441b98be26106c41c6d73c",
    "dongId": "63445ab0adb5727d4d0082df",
    "timeDecibels": [61.106, 63.153, 61.836, 61.157, 62.627, 58.742]
  },
  {
    "_id": "63446185adb5727d4d0084f8",
    "name": "로이드 앞",
    "longitude": 127.0509581,
    "latitude": 37.59453657,
    "guId": "63441b98be26106c41c6d73c",
    "dongId": "63445ab0adb5727d4d0082df",
    "timeDecibels": [69.766, 72.21, 71.614, 69.463, 67.637, 65.083]
  },
  {
    "_id": "63446185adb5727d4d008464",
    "name": "젊은느티나무",
    "longitude": 127.0047847,
    "latitude": 37.64700626,
    "guId": "6344187ebe26106c41c6d734",
    "dongId": "63445ab0adb5727d4d0082aa",
    "timeDecibels": [59.157, 57.114, 56.597, 54.663, 41.68, 43.598]
  },
  {
    "_id": "63446185adb5727d4d00846a",
    "name": "롯데슈퍼 신도림점",
    "longitude": 126.8540469,
    "latitude": 37.49558207,
    "guId": "63441a94be26106c41c6d738",
    "dongId": "63445ab0adb5727d4d0082c8",
    "timeDecibels": [64.334, 64.429, 65.278, 66.377, 60.254, 55.085]
  },
  {
    "_id": "63446185adb5727d4d008474",
    "name": "대동아파트형 공장 앞",
    "longitude": 126.9007561,
    "latitude": 37.46643569,
    "guId": "63441aa3be26106c41c6d739",
    "dongId": "63445ab0adb5727d4d0082cd",
    "timeDecibels": [65.2, 62.6, 62.2, 64.9, 57, 54.3]
  },
  {
    "_id": "63446185adb5727d4d00847a",
    "name": "면목성당 앞",
    "longitude": 127.0904337,
    "latitude": 37.5819082,
    "guId": "63441c78be26106c41c6d74a",
    "dongId": "63445ab0adb5727d4d008462",
    "timeDecibels": [56.6, 60, 61.5, 54.9, 52.5, 56.5]
  },
  {
    "_id": "63446185adb5727d4d008479",
    "name": "면목6동 나윤빌라 앞",
    "longitude": 127.0904337,
    "latitude": 37.5819082,
    "guId": "63441c78be26106c41c6d74a",
    "dongId": "63445ab0adb5727d4d008462",
    "timeDecibels": [54, 59.6, 58.4, 61.8, 55.4, 53.6]
  },
  {
    "_id": "63446185adb5727d4d008481",
    "name": "명동밀리오레 앞",
    "longitude": 126.9861109,
    "latitude": 37.56488123,
    "guId": "63441c64be26106c41c6d749",
    "dongId": "63445ab0adb5727d4d00844a",
    "timeDecibels": [72.356, 68.447, 71.081, 72.283, 69.437, 67.217]
  },
  {
    "_id": "63446185adb5727d4d008485",
    "name": "하나은행 건너편",
    "longitude": 126.8758257,
    "latitude": 37.53677908,
    "guId": "63441c24be26106c41c6d744",
    "dongId": "63445ab0adb5727d4d00836a",
    "timeDecibels": [70.4, 67.2, 70.6, 64.6, 67.7, 63.6]
  },
  {
    "_id": "63446185adb5727d4d008486",
    "name": "109동, 111동 옆 도로",
    "longitude": 126.8758257,
    "latitude": 37.53677908,
    "guId": "63441c24be26106c41c6d744",
    "dongId": "63445ab0adb5727d4d00836a",
    "timeDecibels": [59.6, 62.6, 61.6, 61.6, 60.9, 56]
  },
  {
    "_id": "63446185adb5727d4d00848e",
    "name": "반포정육점 앞",
    "longitude": 127.0023271,
    "latitude": 37.5046175,
    "guId": "63441bedbe26106c41c6d740",
    "dongId": "63445ab0adb5727d4d008322",
    "timeDecibels": [50.649, 56.305, 53.628, 55.721, 47.935, 47.588]
  },
  {
    "_id": "63446185adb5727d4d008490",
    "name": "동원인테리어",
    "longitude": 127.0023271,
    "latitude": 37.5046175,
    "guId": "63441bedbe26106c41c6d740",
    "dongId": "63445ab0adb5727d4d008322",
    "timeDecibels": [64.898, 64.542, 64.601, 62.703, 57.368, 56.231]
  },
  {
    "_id": "63446185adb5727d4d008491",
    "name": "한신아파트 374동 옆",
    "longitude": 127.0023271,
    "latitude": 37.5046175,
    "guId": "63441bedbe26106c41c6d740",
    "dongId": "63445ab0adb5727d4d008322",
    "timeDecibels": [54.9, 55.9, 55, 52.5, 50, 44.9]
  },
  {
    "_id": "63446185adb5727d4d008492",
    "name": "한신 8차 노인정 앞",
    "longitude": 127.0023271,
    "latitude": 37.5046175,
    "guId": "63441bedbe26106c41c6d740",
    "dongId": "63445ab0adb5727d4d008322",
    "timeDecibels": [0, 0, 0, 0, 0, 0]
  },
  {
    "_id": "63446185adb5727d4d00849b",
    "name": "한양이발소",
    "longitude": 126.9474938,
    "latitude": 37.56133852,
    "guId": "63441bbbbe26106c41c6d73f",
    "dongId": "63445ab0adb5727d4d00830b",
    "timeDecibels": [0, 0, 0, 0, 0, 0]
  },
  {
    "_id": "63446185adb5727d4d0084a0",
    "name": "한창주택 앞",
    "longitude": 126.9354269,
    "latitude": 37.61910738,
    "guId": "63441c4cbe26106c41c6d747",
    "dongId": "63445ab0adb5727d4d0083b1",
    "timeDecibels": [54.013, 54.927, 52.928, 52.639, 49.947, 48.871]
  },
  {
    "_id": "63446185adb5727d4d0084a5",
    "name": "509동 뒤",
    "longitude": 127.0722769,
    "latitude": 37.66636668,
    "guId": "63441b80be26106c41c6d73a",
    "dongId": "63445ab0adb5727d4d0082d3",
    "timeDecibels": [51.8, 50.3, 52.8, 50.9, 45.3, 42.9]
  },
  {
    "_id": "63446185adb5727d4d0084a6",
    "name": "215동 굴뚝 옆",
    "longitude": 127.0722769,
    "latitude": 37.66636668,
    "guId": "63441b80be26106c41c6d73a",
    "dongId": "63445ab0adb5727d4d0082d3",
    "timeDecibels": [54.2, 52.8, 51.2, 48.9, 42.8, 41.9]
  },
  {
    "_id": "63446185adb5727d4d0084ae",
    "name": "어린이 놀이터",
    "longitude": 126.9239551,
    "latitude": 37.55831827,
    "guId": "63441bb4be26106c41c6d73e",
    "dongId": "63445ab0adb5727d4d0082ff",
    "timeDecibels": [55.6, 56.1, 50.3, 59, 49.1, 46.6]
  },
  {
    "_id": "63446185adb5727d4d0084be",
    "name": "대림창고 앞",
    "longitude": 127.041551,
    "latitude": 37.54303055,
    "guId": "63441bfabe26106c41c6d741",
    "dongId": "63445ab0adb5727d4d008331",
    "timeDecibels": [66.618, 66.178, 66.565, 66.171, 63.83, 60.996]
  },
  {
    "_id": "63446185adb5727d4d0084c1",
    "name": "상원고시독서실 앞",
    "longitude": 126.9346071,
    "latitude": 37.4630596,
    "guId": "63441a58be26106c41c6d736",
    "dongId": "63445ab0adb5727d4d0082b9",
    "timeDecibels": [60, 59.4, 65.1, 57.3, 53.6, 54.6]
  },
  {
    "_id": "63446185adb5727d4d0084c2",
    "name": "모던하우스 앞",
    "longitude": 126.9346071,
    "latitude": 37.4630596,
    "guId": "63441a58be26106c41c6d736",
    "dongId": "63445ab0adb5727d4d0082b9",
    "timeDecibels": [59.1, 59.5, 61.9, 61.7, 59.6, 58.1]
  },
  {
    "_id": "63446185adb5727d4d0084c5",
    "name": "한림 공무원학원앞",
    "longitude": 126.9346071,
    "latitude": 37.4630596,
    "guId": "63441a58be26106c41c6d736",
    "dongId": "63445ab0adb5727d4d0082b9",
    "timeDecibels": [75.5, 75, 74.2, 74, 72.7, 69.1]
  },
  {
    "_id": "63446185adb5727d4d0084ca",
    "name": "하나은행",
    "longitude": 127.0286102,
    "latitude": 37.5227125,
    "guId": "63441486be26106c41c6d732",
    "dongId": "63445ab0adb5727d4d008297",
    "timeDecibels": [72.453, 71.775, 71.233, 71.783, 66.857, 63.833]
  },
  {
    "_id": "63446185adb5727d4d0084cc",
    "name": "수정상가 뒤",
    "longitude": 126.9294419,
    "latitude": 37.52849122,
    "guId": "63441c31be26106c41c6d745",
    "dongId": "63445ab0adb5727d4d008370",
    "timeDecibels": [56.033, 55.039, 55.225, 54.054, 49.686, 43.779]
  },
  {
    "_id": "63446185adb5727d4d0084d4",
    "name": "7eleven앞",
    "longitude": 127.0392152,
    "latitude": 37.49927697,
    "guId": "63441486be26106c41c6d732",
    "dongId": "63445ab0adb5727d4d008292",
    "timeDecibels": [66.9, 67.7, 66.5, 66.5, 64.7, 60.4]
  },
  {
    "_id": "63446185adb5727d4d0084d8",
    "name": "히포크라테스 동상 옆",
    "longitude": 126.9994743,
    "latitude": 37.57852163,
    "guId": "63441c55be26106c41c6d748",
    "dongId": "63445ab0adb5727d4d0083e6",
    "timeDecibels": [63.5, 63, 62.8, 62.6, 61.2, 59.5]
  },
  {
    "_id": "63446185adb5727d4d0084dc",
    "name": "성남빌딩 옆",
    "longitude": 126.9036488,
    "latitude": 37.51785639,
    "guId": "63441c31be26106c41c6d745",
    "dongId": "63445ab0adb5727d4d00836f",
    "timeDecibels": [59.2, 58.9, 60.3, 57.5, 55.4, 58.2]
  },
  {
    "_id": "63446185adb5727d4d0084e7",
    "name": "스타벅스 앞",
    "longitude": 126.991128,
    "latitude": 37.53884125,
    "guId": "63441c40be26106c41c6d746",
    "dongId": "63445ab0adb5727d4d0083a4",
    "timeDecibels": [70.719, 70.334, 70.346, 71.068, 67.842, 67.553]
  },
  {
    "_id": "63446185adb5727d4d0084e6",
    "name": "크라운호텔 앞",
    "longitude": 126.991128,
    "latitude": 37.53884125,
    "guId": "63441c40be26106c41c6d746",
    "dongId": "63445ab0adb5727d4d0083a4",
    "timeDecibels": [76.061, 76.872, 76.518, 76.813, 75.532, 72.678]
  },
  {
    "_id": "63446185adb5727d4d0084ea",
    "name": "버거킹",
    "longitude": 127.0332363,
    "latitude": 37.59656592,
    "guId": "63441c0cbe26106c41c6d742",
    "dongId": "63445ab0adb5727d4d008354",
    "timeDecibels": [73.136, 74.527, 74.284, 72.865, 70.753, 68.632]
  },
  {
    "_id": "63446185adb5727d4d0084ee",
    "name": "삼성홈플러스앞",
    "longitude": 127.127541,
    "latitude": 37.54312229,
    "guId": "6344186cbe26106c41c6d733",
    "dongId": "63445ab0adb5727d4d0082a5",
    "timeDecibels": [61.2, 58.6, 62.8, 61.4, 56.8, 55.2]
  },
  {
    "_id": "63446185adb5727d4d0084f1",
    "name": "화곡3동사무소 앞",
    "longitude": 126.8441304,
    "latitude": 37.54216688,
    "guId": "63441a3ebe26106c41c6d735",
    "dongId": "63445ab0adb5727d4d0082ad",
    "timeDecibels": [59.1, 60.9, 62.3, 61.5, 66.9, 53.3]
  },
  {
    "_id": "63446185adb5727d4d0084f0",
    "name": "농협 천호동지점 주차장",
    "longitude": 127.127541,
    "latitude": 37.54312229,
    "guId": "6344186cbe26106c41c6d733",
    "dongId": "63445ab0adb5727d4d0082a5",
    "timeDecibels": [66.3, 65.6, 65.1, 64, 61.8, 60.5]
  },
  {
    "_id": "63446185adb5727d4d0084f3",
    "name": "반석교회옆",
    "longitude": 126.8441304,
    "latitude": 37.54216688,
    "guId": "63441a3ebe26106c41c6d735",
    "dongId": "63445ab0adb5727d4d0082ad",
    "timeDecibels": [62.6, 57.8, 60.2, 61.9, 57.3, 54.6]
  },
  {
    "_id": "63446185adb5727d4d0084f5",
    "name": "신한은행 앞",
    "longitude": 126.8441304,
    "latitude": 37.54216688,
    "guId": "63441a3ebe26106c41c6d735",
    "dongId": "63445ab0adb5727d4d0082ad",
    "timeDecibels": [68.2, 68.6, 69.7, 70.7, 69.5, 67.4]
  },
  {
    "_id": "63446185adb5727d4d0084f9",
    "name": "경희대정문 옆",
    "longitude": 127.0509581,
    "latitude": 37.59453657,
    "guId": "63441b98be26106c41c6d73c",
    "dongId": "63445ab0adb5727d4d0082df",
    "timeDecibels": [64.03, 64.638, 64.928, 64.239, 59.499, 55.605]
  },
  {
    "_id": "63446185adb5727d4d008466",
    "name": "광화문한의원",
    "longitude": 126.9832211,
    "latitude": 37.57372618,
    "guId": "63441c55be26106c41c6d748",
    "dongId": "63445ab0adb5727d4d0083c4",
    "timeDecibels": [71.805, 63.255, 61.046, 61.128, 53.835, 54.216]
  },
  {
    "_id": "63446185adb5727d4d00846d",
    "name": "렛슬(아)306동 뒤",
    "longitude": 127.0657834,
    "latitude": 37.49885733,
    "guId": "63441486be26106c41c6d732",
    "dongId": "63445ab0adb5727d4d008293",
    "timeDecibels": [63.824, 61.436, 57.491, 54.679, 50.114, 41.826]
  },
  {
    "_id": "63446185adb5727d4d008469",
    "name": "동덕빌딩 앞",
    "longitude": 126.9832211,
    "latitude": 37.57372618,
    "guId": "63441c55be26106c41c6d748",
    "dongId": "63445ab0adb5727d4d0083c4",
    "timeDecibels": [68.782, 69.43, 69.585, 67.709, 67.798, 64.412]
  },
  {
    "_id": "63446185adb5727d4d008478",
    "name": "중앙수퍼마켓 사거리",
    "longitude": 127.0904337,
    "latitude": 37.5819082,
    "guId": "63441c78be26106c41c6d74a",
    "dongId": "63445ab0adb5727d4d008462",
    "timeDecibels": [55, 55.2, 57.6, 59.4, 53.4, 59.1]
  },
  {
    "_id": "63446185adb5727d4d00847b",
    "name": "면목1동사무소 앞",
    "longitude": 127.0904337,
    "latitude": 37.5819082,
    "guId": "63441c78be26106c41c6d74a",
    "dongId": "63445ab0adb5727d4d008462",
    "timeDecibels": [70.2, 69.1, 65.6, 66.7, 67.7, 64.6]
  },
  {
    "_id": "63446185adb5727d4d00847d",
    "name": "자라 앞",
    "longitude": 126.9861109,
    "latitude": 37.56488123,
    "guId": "63441c64be26106c41c6d749",
    "dongId": "63445ab0adb5727d4d00842f",
    "timeDecibels": [62.03, 61.639, 65.882, 65.054, 61.66, 53.772]
  },
  {
    "_id": "63446185adb5727d4d008480",
    "name": "중앙우체국 앞",
    "longitude": 126.9861109,
    "latitude": 37.56488123,
    "guId": "63441c64be26106c41c6d749",
    "dongId": "63445ab0adb5727d4d00844a",
    "timeDecibels": [71.036, 72.823, 72.06, 72.589, 68.676, 64.766]
  },
  {
    "_id": "63446185adb5727d4d008483",
    "name": "120동, 125동 소나무숲",
    "longitude": 126.8758257,
    "latitude": 37.53677908,
    "guId": "63441c24be26106c41c6d744",
    "dongId": "63445ab0adb5727d4d00836a",
    "timeDecibels": [53.7, 53.5, 50, 52.2, 49.9, 44]
  },
  {
    "_id": "63446185adb5727d4d008484",
    "name": "206동 뒤",
    "longitude": 126.8758257,
    "latitude": 37.53677908,
    "guId": "63441c24be26106c41c6d744",
    "dongId": "63445ab0adb5727d4d00836a",
    "timeDecibels": [55.3, 52.4, 54.2, 53.1, 46.7, 44.9]
  },
  {
    "_id": "63446185adb5727d4d008488",
    "name": "미아3동 성당주차장",
    "longitude": 127.0209401,
    "latitude": 37.62191076,
    "guId": "6344187ebe26106c41c6d734",
    "dongId": "63445ab0adb5727d4d0082a7",
    "timeDecibels": [53.3, 59, 53.2, 56.8, 52.1, 49.5]
  },
  {
    "_id": "63446185adb5727d4d00848a",
    "name": "성신병원 앞",
    "longitude": 127.0209401,
    "latitude": 37.62191076,
    "guId": "6344187ebe26106c41c6d734",
    "dongId": "63445ab0adb5727d4d0082a7",
    "timeDecibels": [70.5, 70.5, 70.7, 71, 73.4, 70.5]
  },
  {
    "_id": "63446185adb5727d4d00848b",
    "name": "Joy & Mart 앞",
    "longitude": 127.0209401,
    "latitude": 37.62191076,
    "guId": "6344187ebe26106c41c6d734",
    "dongId": "63445ab0adb5727d4d0082a7",
    "timeDecibels": [65.3, 68.4, 72.5, 67.8, 66.9, 66.3]
  },
  {
    "_id": "63446185adb5727d4d00849a",
    "name": "동1문 입구",
    "longitude": 127.1272223,
    "latitude": 37.51632496,
    "guId": "63441c14be26106c41c6d743",
    "dongId": "63445ab0adb5727d4d008367",
    "timeDecibels": [70.4, 70.1, 69.7, 69.2, 69.8, 67.2]
  },
  {
    "_id": "63446185adb5727d4d008499",
    "name": "올림픽파크 호텔주차장",
    "longitude": 127.1272223,
    "latitude": 37.51632496,
    "guId": "63441c14be26106c41c6d743",
    "dongId": "63445ab0adb5727d4d008367",
    "timeDecibels": [74, 73.2, 74.7, 74, 70.2, 74.8]
  },
  {
    "_id": "63446185adb5727d4d0084a7",
    "name": "501동 앞 도로",
    "longitude": 127.0722769,
    "latitude": 37.66636668,
    "guId": "63441b80be26106c41c6d73a",
    "dongId": "63445ab0adb5727d4d0082d3",
    "timeDecibels": [62, 63, 63, 63.6, 63.5, 57]
  },
  {
    "_id": "63446185adb5727d4d0084a9",
    "name": "상도3동 방범초소 앞",
    "longitude": 126.9402818,
    "latitude": 37.49960695,
    "guId": "63441ba9be26106c41c6d73d",
    "dongId": "63445ab0adb5727d4d0082e2",
    "timeDecibels": [54.9, 57.5, 56.7, 58.1, 55.9, 54.2]
  },
  {
    "_id": "63446185adb5727d4d0084ac",
    "name": "하나은행 상도지점 앞",
    "longitude": 126.9402818,
    "latitude": 37.49960695,
    "guId": "63441ba9be26106c41c6d73d",
    "dongId": "63445ab0adb5727d4d0082e2",
    "timeDecibels": [72, 71.8, 71.2, 71.9, 72.7, 70.1]
  },
  {
    "_id": "63446185adb5727d4d0084ad",
    "name": "대방의원 앞",
    "longitude": 126.9402818,
    "latitude": 37.49960695,
    "guId": "63441ba9be26106c41c6d73d",
    "dongId": "63445ab0adb5727d4d0082e2",
    "timeDecibels": [74.5, 74.1, 71, 73.4, 74, 72.2]
  },
  {
    "_id": "63446185adb5727d4d0084b5",
    "name": "스웨덴대사관 앞",
    "longitude": 127.0035905,
    "latitude": 37.58955132,
    "guId": "63441c0cbe26106c41c6d742",
    "dongId": "63445ab0adb5727d4d008335",
    "timeDecibels": [56.053, 57.164, 59.339, 51.226, 47.821, 42.353]
  },
  {
    "_id": "63446185adb5727d4d0084b6",
    "name": "호주대사관저 앞",
    "longitude": 127.0035905,
    "latitude": 37.58955132,
    "guId": "63441c0cbe26106c41c6d742",
    "dongId": "63445ab0adb5727d4d008335",
    "timeDecibels": [65.076, 62.59, 59.208, 53.555, 45.226, 48.615]
  },
  {
    "_id": "63446185adb5727d4d0084b7",
    "name": "제일퍼크로크리닝",
    "longitude": 127.0035905,
    "latitude": 37.58955132,
    "guId": "63441c0cbe26106c41c6d742",
    "dongId": "63445ab0adb5727d4d008335",
    "timeDecibels": [56.116, 56.276, 57.46, 55.135, 49.752, 41.012]
  },
  {
    "_id": "63446185adb5727d4d0084b9",
    "name": "작은갤러리",
    "longitude": 127.0035905,
    "latitude": 37.58955132,
    "guId": "63441c0cbe26106c41c6d742",
    "dongId": "63445ab0adb5727d4d008335",
    "timeDecibels": [63.039, 63.017, 63.216, 62.5, 59.219, 58.429]
  },
  {
    "_id": "63446185adb5727d4d0084b8",
    "name": "쌍다리기사식당 앞",
    "longitude": 127.0035905,
    "latitude": 37.58955132,
    "guId": "63441c0cbe26106c41c6d742",
    "dongId": "63445ab0adb5727d4d008335",
    "timeDecibels": [69.493, 68.747, 66.175, 65.773, 62.043, 53.967]
  },
  {
    "_id": "63446185adb5727d4d0084ba",
    "name": "성수종로약국",
    "longitude": 127.041551,
    "latitude": 37.54303055,
    "guId": "63441bfabe26106c41c6d741",
    "dongId": "63445ab0adb5727d4d008331",
    "timeDecibels": [67.688, 67.063, 66.459, 65.944, 61.133, 58.519]
  },
  {
    "_id": "63446185adb5727d4d0084c6",
    "name": "압구정초교 후문",
    "longitude": 127.0286102,
    "latitude": 37.5227125,
    "guId": "63441486be26106c41c6d732",
    "dongId": "63445ab0adb5727d4d008297",
    "timeDecibels": [61.294, 61.907, 59.241, 59.723, 50.838, 45.139]
  },
  {
    "_id": "63446185adb5727d4d0084cb",
    "name": "중앙빌딩 앞",
    "longitude": 126.9294419,
    "latitude": 37.52849122,
    "guId": "63441c31be26106c41c6d745",
    "dongId": "63445ab0adb5727d4d008370",
    "timeDecibels": [65.454, 62.577, 62.744, 62.727, 58.79, 57.398]
  },
  {
    "_id": "63446185adb5727d4d0084ce",
    "name": "KBS2 앞",
    "longitude": 126.9294419,
    "latitude": 37.52849122,
    "guId": "63441c31be26106c41c6d745",
    "dongId": "63445ab0adb5727d4d008370",
    "timeDecibels": [71.873, 71.917, 71.213, 75.2, 72.27, 68.552]
  },
  {
    "_id": "63446185adb5727d4d0084d1",
    "name": "국기원 후문",
    "longitude": 127.0392152,
    "latitude": 37.49927697,
    "guId": "63441486be26106c41c6d732",
    "dongId": "63445ab0adb5727d4d008292",
    "timeDecibels": [57.7, 63.7, 60.2, 62, 57.6, 55.6]
  },
  {
    "_id": "63446185adb5727d4d0084d6",
    "name": "병원 시계탑 건물 앞",
    "longitude": 126.9994743,
    "latitude": 37.57852163,
    "guId": "63441c55be26106c41c6d748",
    "dongId": "63445ab0adb5727d4d0083e6",
    "timeDecibels": [55.9, 57.2, 55.8, 56.4, 53.2, 52.4]
  },
  {
    "_id": "63446185adb5727d4d0084d9",
    "name": "치과병원 주차장 옆",
    "longitude": 126.9994743,
    "latitude": 37.57852163,
    "guId": "63441c55be26106c41c6d748",
    "dongId": "63445ab0adb5727d4d0083e6",
    "timeDecibels": [67.9, 68.4, 68.6, 68.8, 67.7, 66.5]
  },
  {
    "_id": "63446185adb5727d4d0084da",
    "name": "신중앙예식장 앞",
    "longitude": 126.9036488,
    "latitude": 37.51785639,
    "guId": "63441c31be26106c41c6d745",
    "dongId": "63445ab0adb5727d4d00836f",
    "timeDecibels": [57.2, 56.5, 54.5, 56, 56.9, 52.8]
  },
  {
    "_id": "63446185adb5727d4d0084db",
    "name": "맥스모텔 앞",
    "longitude": 126.9036488,
    "latitude": 37.51785639,
    "guId": "63441c31be26106c41c6d745",
    "dongId": "63445ab0adb5727d4d00836f",
    "timeDecibels": [60.6, 63.8, 61.7, 59.1, 61.9, 54.2]
  },
  {
    "_id": "63446185adb5727d4d0084e1",
    "name": "주한벨기에대사관",
    "longitude": 126.9804724,
    "latitude": 37.53114116,
    "guId": "63441c40be26106c41c6d746",
    "dongId": "63445ab0adb5727d4d0083a7",
    "timeDecibels": [58.323, 56.237, 56.466, 55.328, 56.941, 50.488]
  },
  {
    "_id": "63446185adb5727d4d0084e0",
    "name": "인도대사관저",
    "longitude": 126.9804724,
    "latitude": 37.53114116,
    "guId": "63441c40be26106c41c6d746",
    "dongId": "63445ab0adb5727d4d0083a7",
    "timeDecibels": [60.196, 60.898, 58.94, 64.548, 54.157, 55.257]
  },
  {
    "_id": "63446185adb5727d4d0084e4",
    "name": "온누리약국",
    "longitude": 127.0048047,
    "latitude": 37.6370593,
    "guId": "6344187ebe26106c41c6d734",
    "dongId": "63445ab0adb5727d4d0082aa",
    "timeDecibels": [71.147, 67.858, 72.602, 67.88, 66.048, 59.576]
  },
  {
    "_id": "63446185adb5727d4d0084e5",
    "name": "그린파크 앞",
    "longitude": 127.0048047,
    "latitude": 37.6370593,
    "guId": "6344187ebe26106c41c6d734",
    "dongId": "63445ab0adb5727d4d0082aa",
    "timeDecibels": [61.693, 61.64, 61.228, 60.869, 58.656, 54.522]
  },
  {
    "_id": "63446185adb5727d4d0084e8",
    "name": "농협 맞은편",
    "longitude": 127.0332363,
    "latitude": 37.59656592,
    "guId": "63441c0cbe26106c41c6d742",
    "dongId": "63445ab0adb5727d4d008354",
    "timeDecibels": [65.305, 64.378, 64.764, 65.002, 61.327, 58.854]
  },
  {
    "_id": "63446185adb5727d4d0084e9",
    "name": "종암교회 앞",
    "longitude": 127.0332363,
    "latitude": 37.59656592,
    "guId": "63441c0cbe26106c41c6d742",
    "dongId": "63445ab0adb5727d4d008354",
    "timeDecibels": [58.277, 59.509, 59.688, 58.48, 54.766, 51.274]
  },
  {
    "_id": "63446185adb5727d4d0084ed",
    "name": "코오롱 상가아파트 옆",
    "longitude": 127.127541,
    "latitude": 37.54312229,
    "guId": "6344186cbe26106c41c6d733",
    "dongId": "63445ab0adb5727d4d0082a5",
    "timeDecibels": [66.1, 65.7, 65.1, 64.6, 60.3, 57.9]
  },
  {
    "_id": "63446185adb5727d4d0084f7",
    "name": "연화사 앞",
    "longitude": 127.0509581,
    "latitude": 37.59453657,
    "guId": "63441b98be26106c41c6d73c",
    "dongId": "63445ab0adb5727d4d0082df",
    "timeDecibels": [59.269, 57.164, 57.974, 57.693, 51.038, 52.3]
  },
  {
    "_id": "63446185adb5727d4d008465",
    "name": "조계사 후문 앞",
    "longitude": 126.9832211,
    "latitude": 37.57372618,
    "guId": "63441c55be26106c41c6d748",
    "dongId": "63445ab0adb5727d4d0083c4",
    "timeDecibels": [59.37, 57.051, 56.402, 55.533, 46.157, 45.316]
  },
  {
    "_id": "63446185adb5727d4d008468",
    "name": "우정에쉐르",
    "longitude": 126.9832211,
    "latitude": 37.57372618,
    "guId": "63441c55be26106c41c6d748",
    "dongId": "63445ab0adb5727d4d0083c4",
    "timeDecibels": [69.048, 69.012, 69.242, 68.911, 66.145, 62.682]
  },
  {
    "_id": "63446185adb5727d4d00846b",
    "name": "신도림우성5차아파트 501동 앞",
    "longitude": 126.8540469,
    "latitude": 37.49558207,
    "guId": "63441a94be26106c41c6d738",
    "dongId": "63445ab0adb5727d4d0082c8",
    "timeDecibels": [51.411, 52.391, 53.138, 54.08, 51.763, 46.773]
  },
  {
    "_id": "63446185adb5727d4d00846c",
    "name": "공구상가일번지관리단",
    "longitude": 126.8540469,
    "latitude": 37.49558207,
    "guId": "63441a94be26106c41c6d738",
    "dongId": "63445ab0adb5727d4d0082c5",
    "timeDecibels": [66.615, 67.677, 66.679, 66.343, 62.882, 61.191]
  },
  {
    "_id": "63446185adb5727d4d00846e",
    "name": "대치1동주민센터",
    "longitude": 127.0657834,
    "latitude": 37.49885733,
    "guId": "63441486be26106c41c6d732",
    "dongId": "63445ab0adb5727d4d008293",
    "timeDecibels": [64.577, 64.056, 59.528, 54.87, 49.378, 45.529]
  },
  {
    "_id": "63446185adb5727d4d008470",
    "name": "숙명여고 앞",
    "longitude": 127.0657834,
    "latitude": 37.49885733,
    "guId": "63441486be26106c41c6d732",
    "dongId": "63445ab0adb5727d4d008293",
    "timeDecibels": [72.847, 72.553, 72.136, 70.799, 70.152, 66.398]
  },
  {
    "_id": "63446185adb5727d4d008472",
    "name": "진도3차 관리사무소앞",
    "longitude": 126.9007561,
    "latitude": 37.46643569,
    "guId": "63441aa3be26106c41c6d739",
    "dongId": "63445ab0adb5727d4d0082cd",
    "timeDecibels": [63.7, 63.2, 65.6, 64.7, 61.1, 56.3]
  },
  {
    "_id": "63446185adb5727d4d008475",
    "name": "신세계 물류센터 앞",
    "longitude": 126.9007561,
    "latitude": 37.46643569,
    "guId": "63441aa3be26106c41c6d739",
    "dongId": "63445ab0adb5727d4d0082cd",
    "timeDecibels": [71.9, 70.8, 70.3, 69.8, 67, 60.2]
  },
  {
    "_id": "63446185adb5727d4d008477",
    "name": "경희아트빌라",
    "longitude": 127.0517856,
    "latitude": 37.58373544,
    "guId": "63441b98be26106c41c6d73c",
    "dongId": "63445ab0adb5727d4d0082df",
    "timeDecibels": [53.817, 52.267, 53.369, 51.429, 49.95, 46.835]
  },
  {
    "_id": "63446185adb5727d4d008482",
    "name": "129동 앞 놀이터",
    "longitude": 126.8758257,
    "latitude": 37.53677908,
    "guId": "63441c24be26106c41c6d744",
    "dongId": "63445ab0adb5727d4d00836a",
    "timeDecibels": [58.1, 50.6, 55, 52, 49.1, 46.1]
  },
  {
    "_id": "63446185adb5727d4d008487",
    "name": "현대아트빌라 앞",
    "longitude": 127.0209401,
    "latitude": 37.62191076,
    "guId": "6344187ebe26106c41c6d734",
    "dongId": "63445ab0adb5727d4d0082a7",
    "timeDecibels": [56.6, 58.9, 53.3, 57.3, 55.4, 45.6]
  },
  {
    "_id": "63446185adb5727d4d008489",
    "name": "경향신문 보급소앞",
    "longitude": 127.0209401,
    "latitude": 37.62191076,
    "guId": "6344187ebe26106c41c6d734",
    "dongId": "63445ab0adb5727d4d0082a7",
    "timeDecibels": [52.8, 60.8, 52.9, 60.4, 53, 49.6]
  },
  {
    "_id": "63446185adb5727d4d00848c",
    "name": "반포초등학교 앞",
    "longitude": 127.0023271,
    "latitude": 37.5046175,
    "guId": "63441bedbe26106c41c6d740",
    "dongId": "63445ab0adb5727d4d008322",
    "timeDecibels": [55.535, 56.549, 53.23, 56.583, 48.832, 49.471]
  },
  {
    "_id": "63446185adb5727d4d00848f",
    "name": "아주약국 앞",
    "longitude": 127.0023271,
    "latitude": 37.5046175,
    "guId": "63441bedbe26106c41c6d740",
    "dongId": "63445ab0adb5727d4d008322",
    "timeDecibels": [71.791, 71.143, 70.489, 70.916, 65.672, 61.439]
  },
  {
    "_id": "63446185adb5727d4d008494",
    "name": "경원중학교 후문 앞",
    "longitude": 127.0023271,
    "latitude": 37.5046175,
    "guId": "63441bedbe26106c41c6d740",
    "dongId": "63445ab0adb5727d4d008322",
    "timeDecibels": [64.3, 65, 64.6, 65.4, 60.3, 59.4]
  },
  {
    "_id": "63446185adb5727d4d008496",
    "name": "올림픽 경륜장 옆",
    "longitude": 127.1272223,
    "latitude": 37.51632496,
    "guId": "63441c14be26106c41c6d743",
    "dongId": "63445ab0adb5727d4d008367",
    "timeDecibels": [0, 0, 0, 0, 0, 0]
  },
  {
    "_id": "63446185adb5727d4d008497",
    "name": "수영장 앞",
    "longitude": 127.1272223,
    "latitude": 37.51632496,
    "guId": "63441c14be26106c41c6d743",
    "dongId": "63445ab0adb5727d4d008367",
    "timeDecibels": [0, 0, 0, 0, 0, 0]
  },
  {
    "_id": "63446185adb5727d4d00849c",
    "name": "삼익아파트 앞",
    "longitude": 126.9474938,
    "latitude": 37.56133852,
    "guId": "63441bbbbe26106c41c6d73f",
    "dongId": "63445ab0adb5727d4d00830b",
    "timeDecibels": [0, 0, 0, 0, 0, 0]
  },
  {
    "_id": "63446185adb5727d4d00849f",
    "name": "영산어린이집 앞",
    "longitude": 126.9354269,
    "latitude": 37.61910738,
    "guId": "63441c4cbe26106c41c6d747",
    "dongId": "63445ab0adb5727d4d0083b1",
    "timeDecibels": [56.999, 57.767, 55.846, 56.938, 52.224, 50.248]
  },
  {
    "_id": "63446185adb5727d4d0084a1",
    "name": "불광초교후문 앞",
    "longitude": 126.9354269,
    "latitude": 37.61910738,
    "guId": "63441c4cbe26106c41c6d747",
    "dongId": "63445ab0adb5727d4d0083b1",
    "timeDecibels": [59.558, 57.496, 66.593, 53.727, 58.888, 48.917]
  },
  {
    "_id": "63446185adb5727d4d0084a3",
    "name": "LG베스트샵",
    "longitude": 126.9354269,
    "latitude": 37.61910738,
    "guId": "63441c4cbe26106c41c6d747",
    "dongId": "63445ab0adb5727d4d0083b1",
    "timeDecibels": [68.034, 67.996, 67.026, 66.798, 67.118, 63.423]
  },
  {
    "_id": "63446185adb5727d4d0084a8",
    "name": "308동앞#14가로등 밑",
    "longitude": 127.0722769,
    "latitude": 37.66636668,
    "guId": "63441b80be26106c41c6d73a",
    "dongId": "63445ab0adb5727d4d0082d3",
    "timeDecibels": [59.5, 61, 61.9, 61.8, 55.4, 55]
  },
  {
    "_id": "63446185adb5727d4d0084ab",
    "name": "청원보육원 마당",
    "longitude": 126.9402818,
    "latitude": 37.49960695,
    "guId": "63441ba9be26106c41c6d73d",
    "dongId": "63445ab0adb5727d4d0082e2",
    "timeDecibels": [54.7, 56.3, 54.6, 55.7, 53.1, 49.1]
  },
  {
    "_id": "63446185adb5727d4d0084b4",
    "name": "다이소 종압정 건너편",
    "longitude": 127.0280535,
    "latitude": 37.60709913,
    "guId": "63441c0cbe26106c41c6d742",
    "dongId": "63445ab0adb5727d4d008354",
    "timeDecibels": [67.512, 65.795, 65.659, 66.792, 64.045, 62.027]
  },
  {
    "_id": "63446185adb5727d4d0084bd",
    "name": "제일빌딩",
    "longitude": 127.041551,
    "latitude": 37.54303055,
    "guId": "63441bfabe26106c41c6d741",
    "dongId": "63445ab0adb5727d4d008331",
    "timeDecibels": [68.435, 68.9, 67.041, 64.861, 67.54, 66.563]
  },
  {
    "_id": "63446185adb5727d4d0084c0",
    "name": "국민은행 앞",
    "longitude": 126.8829518,
    "latitude": 37.51059452,
    "guId": "63441a94be26106c41c6d738",
    "dongId": "63445ab0adb5727d4d0082c8",
    "timeDecibels": [72.809, 71.192, 69.082, 70.477, 65.595, 63.573]
  },
  {
    "_id": "63446185adb5727d4d0084bf",
    "name": "신도테크",
    "longitude": 126.8829518,
    "latitude": 37.51059452,
    "guId": "63441a94be26106c41c6d738",
    "dongId": "63445ab0adb5727d4d0082c8",
    "timeDecibels": [65.756, 65.387, 65.19, 64.849, 62.339, 62.116]
  },
  {
    "_id": "63446185adb5727d4d0084c3",
    "name": "선경부동산 앞",
    "longitude": 126.9346071,
    "latitude": 37.4630596,
    "guId": "63441a58be26106c41c6d736",
    "dongId": "63445ab0adb5727d4d0082b9",
    "timeDecibels": [55.2, 58.3, 58.4, 58.9, 57.9, 60.7]
  },
  {
    "_id": "63446185adb5727d4d0084c7",
    "name": "금강쇼핑 앞",
    "longitude": 127.0286102,
    "latitude": 37.5227125,
    "guId": "63441486be26106c41c6d732",
    "dongId": "63445ab0adb5727d4d008297",
    "timeDecibels": [62.561, 61.773, 60.904, 60.569, 48.293, 46.481]
  },
  {
    "_id": "63446185adb5727d4d0084cd",
    "name": "한양아파트A동 옆",
    "longitude": 126.9294419,
    "latitude": 37.52849122,
    "guId": "63441c31be26106c41c6d745",
    "dongId": "63445ab0adb5727d4d008370",
    "timeDecibels": [52.198, 53.281, 53.996, 53.655, 49.286, 45.94]
  },
  {
    "_id": "63446185adb5727d4d0084cf",
    "name": "시티뱅크 앞",
    "longitude": 126.9294419,
    "latitude": 37.52849122,
    "guId": "63441c31be26106c41c6d745",
    "dongId": "63445ab0adb5727d4d008370",
    "timeDecibels": [65.842, 61.471, 60.478, 64.163, 60.937, 56.34]
  },
  {
    "_id": "63446185adb5727d4d0084d2",
    "name": "Bigten House 앞",
    "longitude": 127.0392152,
    "latitude": 37.49927697,
    "guId": "63441486be26106c41c6d732",
    "dongId": "63445ab0adb5727d4d008292",
    "timeDecibels": [57.7, 65, 61.7, 61.9, 63.1, 56.7]
  },
  {
    "_id": "63446185adb5727d4d0084d5",
    "name": "정민약국앞",
    "longitude": 126.9994743,
    "latitude": 37.57852163,
    "guId": "63441c55be26106c41c6d748",
    "dongId": "63445ab0adb5727d4d0083e6",
    "timeDecibels": [60.4, 63.3, 60.6, 66.7, 58.1, 55.4]
  },
  {
    "_id": "63446185adb5727d4d0084dd",
    "name": "농협영등포지점앞",
    "longitude": 126.9036488,
    "latitude": 37.51785639,
    "guId": "63441c31be26106c41c6d745",
    "dongId": "63445ab0adb5727d4d00836f",
    "timeDecibels": [70.6, 69.4, 68.5, 70.9, 69.4, 68.1]
  },
  {
    "_id": "63446185adb5727d4d0084de",
    "name": "국민은행 앞",
    "longitude": 126.9036488,
    "latitude": 37.51785639,
    "guId": "63441c31be26106c41c6d745",
    "dongId": "63445ab0adb5727d4d00836f",
    "timeDecibels": [73.1, 72, 72.3, 71.6, 70.4, 71.2]
  },
  {
    "_id": "63446185adb5727d4d0084e2",
    "name": "왕의장어",
    "longitude": 127.0048047,
    "latitude": 37.6370593,
    "guId": "6344187ebe26106c41c6d734",
    "dongId": "63445ab0adb5727d4d0082aa",
    "timeDecibels": [60.73, 59.406, 57.675, 56.324, 45.805, 46.982]
  },
  {
    "_id": "63446185adb5727d4d0084e3",
    "name": "한일교",
    "longitude": 127.0048047,
    "latitude": 37.6370593,
    "guId": "6344187ebe26106c41c6d734",
    "dongId": "63445ab0adb5727d4d0082aa",
    "timeDecibels": [62.314, 62.001, 61.805, 61.21, 58.776, 59.818]
  },
  {
    "_id": "63446185adb5727d4d0084eb",
    "name": "무판안경",
    "longitude": 127.0332363,
    "latitude": 37.59656592,
    "guId": "63441c0cbe26106c41c6d742",
    "dongId": "63445ab0adb5727d4d008354",
    "timeDecibels": [73.178, 76.812, 74.498, 72.242, 71.382, 67.082]
  },
  {
    "_id": "63446185adb5727d4d0084ec",
    "name": "현대문화센타앞",
    "longitude": 127.127541,
    "latitude": 37.54312229,
    "guId": "6344186cbe26106c41c6d733",
    "dongId": "63445ab0adb5727d4d0082a5",
    "timeDecibels": [61.4, 65.1, 62.3, 60.5, 58.6, 57.7]
  }
]
