[
  {
    "name": "조계사 후문 앞",
    "longitude": "126.9832211",
    "latitude": "37.57372618"
  },
  { "name": "자라 앞", "longitude": "126.9861109", "latitude": "37.56488123" },
  {
    "name": "크라운호텔 앞",
    "longitude": "126.991128",
    "latitude": "37.53884125"
  },
  {
    "name": "성수종로약국",
    "longitude": "127.041551",
    "latitude": "37.54303055"
  },
  {
    "name": "광화문한의원",
    "longitude": "126.9832211",
    "latitude": "37.57372618"
  },
  {
    "name": "명동 오다헤어",
    "longitude": "126.9861109",
    "latitude": "37.56488123"
  },
  {
    "name": "경희약국 앞",
    "longitude": "127.0509581",
    "latitude": "37.59453657"
  },
  {
    "name": "스웨덴대사관 앞",
    "longitude": "127.0035905",
    "latitude": "37.58955132"
  },
  {
    "name": "동산불교회관",
    "longitude": "126.9832211",
    "latitude": "37.57372618"
  },
  {
    "name": "스타벅스 앞",
    "longitude": "126.991128",
    "latitude": "37.53884125"
  },
  {
    "name": "현대자동차동부사업소",
    "longitude": "127.041551",
    "latitude": "37.54303055"
  },
  {
    "name": "우리은행 앞",
    "longitude": "126.9861109",
    "latitude": "37.56488123"
  },
  { "name": "왕의장어", "longitude": "127.0048047", "latitude": "37.6370593" },
  {
    "name": "농협 맞은편",
    "longitude": "127.0332363",
    "latitude": "37.59656592"
  },
  {
    "name": "우정에쉐르",
    "longitude": "126.9832211",
    "latitude": "37.57372618"
  },
  {
    "name": "백해영갤러리",
    "longitude": "126.9804724",
    "latitude": "37.53114116"
  },
  {
    "name": "연화사 앞",
    "longitude": "127.0509581",
    "latitude": "37.59453657"
  },
  {
    "name": "중앙우체국 앞",
    "longitude": "126.9861109",
    "latitude": "37.56488123"
  },
  {
    "name": "호주대사관저 앞",
    "longitude": "127.0035905",
    "latitude": "37.58955132"
  },
  {
    "name": "우란문화재단",
    "longitude": "127.041551",
    "latitude": "37.54303055"
  },
  {
    "name": "한양이발소",
    "longitude": "126.9474938",
    "latitude": "37.56133852"
  },
  {
    "name": "영산어린이집 앞",
    "longitude": "126.9354269",
    "latitude": "37.61910738"
  },
  {
    "name": "동덕빌딩 앞",
    "longitude": "126.9832211",
    "latitude": "37.57372618"
  },
  {
    "name": "인도대사관저",
    "longitude": "126.9804724",
    "latitude": "37.53114116"
  },
  {
    "name": "로이드 앞",
    "longitude": "127.0509581",
    "latitude": "37.59453657"
  },
  { "name": "한일교", "longitude": "127.0048047", "latitude": "37.6370593" },
  {
    "name": "종암교회 앞",
    "longitude": "127.0332363",
    "latitude": "37.59656592"
  },
  {
    "name": "명동밀리오레 앞",
    "longitude": "126.9861109",
    "latitude": "37.56488123"
  },
  { "name": "제일빌딩", "longitude": "127.041551", "latitude": "37.54303055" },
  {
    "name": "제일퍼크로크리닝",
    "longitude": "127.0035905",
    "latitude": "37.58955132"
  },
  {
    "name": "중앙빌딩 앞",
    "longitude": "126.9294419",
    "latitude": "37.52849122"
  },
  {
    "name": "주한벨기에대사관",
    "longitude": "126.9804724",
    "latitude": "37.53114116"
  },
  { "name": "신도테크", "longitude": "126.8829518", "latitude": "37.51059452" },
  {
    "name": "경희대정문 옆",
    "longitude": "127.0509581",
    "latitude": "37.59453657"
  },
  {
    "name": "삼익아파트 앞",
    "longitude": "126.9474938",
    "latitude": "37.56133852"
  },
  {
    "name": "한창주택 앞",
    "longitude": "126.9354269",
    "latitude": "37.61910738"
  },
  { "name": "버거킹", "longitude": "127.0332363", "latitude": "37.59656592" },
  {
    "name": "대림창고 앞",
    "longitude": "127.041551",
    "latitude": "37.54303055"
  },
  {
    "name": "쌍다리기사식당 앞",
    "longitude": "127.0035905",
    "latitude": "37.58955132"
  },
  {
    "name": "온누리약국",
    "longitude": "127.0048047",
    "latitude": "37.6370593"
  },
  {
    "name": "렛슬(아)306동 뒤",
    "longitude": "127.0657834",
    "latitude": "37.49885733"
  },
  {
    "name": "경희아트빌라",
    "longitude": "127.0517856",
    "latitude": "37.58373544"
  },
  {
    "name": "반포초등학교 앞",
    "longitude": "127.0023271",
    "latitude": "37.5046175"
  },
  {
    "name": "수정상가 뒤",
    "longitude": "126.9294419",
    "latitude": "37.52849122"
  },
  {
    "name": "불광초교후문 앞",
    "longitude": "126.9354269",
    "latitude": "37.61910738"
  },
  {
    "name": "국민은행 앞",
    "longitude": "126.8829518",
    "latitude": "37.51059452"
  },
  { "name": "무판안경", "longitude": "127.0332363", "latitude": "37.59656592" },
  {
    "name": "그린파크 앞",
    "longitude": "127.0048047",
    "latitude": "37.6370593"
  },
  {
    "name": "작은갤러리",
    "longitude": "127.0035905",
    "latitude": "37.58955132"
  },
  {
    "name": "다이소 종압정 건너편",
    "longitude": "127.0280535",
    "latitude": "37.60709913"
  },
  {
    "name": "우리은행 앞",
    "longitude": "126.9474938",
    "latitude": "37.56133852"
  },
  {
    "name": "정민약국앞",
    "longitude": "126.9994743",
    "latitude": "37.57852163"
  },
  {
    "name": "대치1동주민센터",
    "longitude": "127.0657834",
    "latitude": "37.49885733"
  },
  {
    "name": "롯데슈퍼 신도림점",
    "longitude": "126.8540469",
    "latitude": "37.49558207"
  },
  {
    "name": "압구정초교 후문",
    "longitude": "127.0286102",
    "latitude": "37.5227125"
  },
  {
    "name": "젊은느티나무",
    "longitude": "127.0047847",
    "latitude": "37.64700626"
  },
  {
    "name": "기업은행 앞",
    "longitude": "126.9354269",
    "latitude": "37.61910738"
  },
  {
    "name": "반포주공20동 앞",
    "longitude": "127.0023271",
    "latitude": "37.5046175"
  },
  {
    "name": "아현감리교회 앞",
    "longitude": "126.9474938",
    "latitude": "37.56133852"
  },
  {
    "name": "현대아트빌라 앞",
    "longitude": "127.0209401",
    "latitude": "37.62191076"
  },
  {
    "name": "병원 시계탑 건물 앞",
    "longitude": "126.9994743",
    "latitude": "37.57852163"
  },
  {
    "name": "한양아파트A동 옆",
    "longitude": "126.9294419",
    "latitude": "37.52849122"
  },
  {
    "name": "중앙수퍼마켓 사거리",
    "longitude": "127.0904337",
    "latitude": "37.5819082"
  },
  {
    "name": "신도림우성5차아파트 501동 앞",
    "longitude": "126.8540469",
    "latitude": "37.49558207"
  },
  {
    "name": "LG베스트샵",
    "longitude": "126.9354269",
    "latitude": "37.61910738"
  },
  {
    "name": "미광자동차공업사",
    "longitude": "126.933092",
    "latitude": "37.58280877"
  },
  {
    "name": "반포정육점 앞",
    "longitude": "127.0023271",
    "latitude": "37.5046175"
  },
  {
    "name": "금강쇼핑 앞",
    "longitude": "127.0286102",
    "latitude": "37.5227125"
  },
  {
    "name": "미아3동 성당주차장",
    "longitude": "127.0209401",
    "latitude": "37.62191076"
  },
  {
    "name": "어린이 놀이터",
    "longitude": "126.9239551",
    "latitude": "37.55831827"
  },
  { "name": "KBS2 앞", "longitude": "126.9294419", "latitude": "37.52849122" },
  {
    "name": "중대부고 앞",
    "longitude": "127.0657834",
    "latitude": "37.49885733"
  },
  {
    "name": "312동, 314동 사이",
    "longitude": "127.0722769",
    "latitude": "37.66636668"
  },
  {
    "name": "공구상가일번지관리단",
    "longitude": "126.8540469",
    "latitude": "37.49558207"
  },
  {
    "name": "제일은행 앞",
    "longitude": "127.0286102",
    "latitude": "37.5227125"
  },
  {
    "name": "면목6동 나윤빌라 앞",
    "longitude": "127.0904337",
    "latitude": "37.5819082"
  },
  {
    "name": "아주약국 앞",
    "longitude": "127.0023271",
    "latitude": "37.5046175"
  },
  {
    "name": "화곡3동사무소 앞",
    "longitude": "126.8441304",
    "latitude": "37.54216688"
  },
  {
    "name": "서현교회 앞마당",
    "longitude": "126.9239551",
    "latitude": "37.55831827"
  },
  {
    "name": "시티뱅크 앞",
    "longitude": "126.9294419",
    "latitude": "37.52849122"
  },
  {
    "name": "숙명여고 앞",
    "longitude": "127.0657834",
    "latitude": "37.49885733"
  },
  {
    "name": "129동 앞 놀이터",
    "longitude": "126.8758257",
    "latitude": "37.53677908"
  },
  {
    "name": "면목성당 앞",
    "longitude": "127.0904337",
    "latitude": "37.5819082"
  },
  {
    "name": "간호사 기숙사 옆",
    "longitude": "126.9994743",
    "latitude": "37.57852163"
  },
  {
    "name": "동원인테리어",
    "longitude": "127.0023271",
    "latitude": "37.5046175"
  },
  {
    "name": "원방프라자",
    "longitude": "127.0286102",
    "latitude": "37.5227125"
  },
  { "name": "509동 뒤", "longitude": "127.0722769", "latitude": "37.66636668" },
  {
    "name": "신중앙예식장 앞",
    "longitude": "126.9036488",
    "latitude": "37.51785639"
  },
  {
    "name": "소비자유통앞",
    "longitude": "126.8441304",
    "latitude": "37.54216688"
  },
  {
    "name": "대도초교 앞",
    "longitude": "127.0657834",
    "latitude": "37.49885733"
  },
  {
    "name": "진도3차 관리사무소앞",
    "longitude": "126.9007561",
    "latitude": "37.46643569"
  },
  {
    "name": "히포크라테스 동상 옆",
    "longitude": "126.9994743",
    "latitude": "37.57852163"
  },
  {
    "name": "경향신문 보급소앞",
    "longitude": "127.0209401",
    "latitude": "37.62191076"
  },
  {
    "name": "면목1동사무소 앞",
    "longitude": "127.0904337",
    "latitude": "37.5819082"
  },
  { "name": "하나은행", "longitude": "127.0286102", "latitude": "37.5227125" },
  {
    "name": "215동 굴뚝 옆",
    "longitude": "127.0722769",
    "latitude": "37.66636668"
  },
  {
    "name": "120동, 125동 소나무숲",
    "longitude": "126.8758257",
    "latitude": "37.53677908"
  },
  {
    "name": "상원고시독서실 앞",
    "longitude": "126.9346071",
    "latitude": "37.4630596"
  },
  {
    "name": "맥스모텔 앞",
    "longitude": "126.9036488",
    "latitude": "37.51785639"
  },
  {
    "name": "치과병원 주차장 옆",
    "longitude": "126.9994743",
    "latitude": "37.57852163"
  },
  {
    "name": "상도3동 방범초소 앞",
    "longitude": "126.9402818",
    "latitude": "37.49960695"
  },
  {
    "name": "성신병원 앞",
    "longitude": "127.0209401",
    "latitude": "37.62191076"
  },
  {
    "name": "복개천도로앞",
    "longitude": "127.0904337",
    "latitude": "37.5819082"
  },
  { "name": "그린마트", "longitude": "126.9239551", "latitude": "37.55831827" },
  {
    "name": "501동 앞 도로",
    "longitude": "127.0722769",
    "latitude": "37.66636668"
  },
  { "name": "206동 뒤", "longitude": "126.8758257", "latitude": "37.53677908" },
  {
    "name": "정도화성(주) 앞",
    "longitude": "126.9007561",
    "latitude": "37.46643569"
  },
  {
    "name": "중앙도서관 국기게양대",
    "longitude": "127.0392152",
    "latitude": "37.49927697"
  },
  {
    "name": "모던하우스 앞",
    "longitude": "126.9346071",
    "latitude": "37.4630596"
  },
  {
    "name": "한신아파트 374동 옆",
    "longitude": "127.0023271",
    "latitude": "37.5046175"
  },
  {
    "name": "Joy & Mart 앞",
    "longitude": "127.0209401",
    "latitude": "37.62191076"
  },
  {
    "name": "화승빌딩 앞",
    "longitude": "126.9239551",
    "latitude": "37.55831827"
  },
  {
    "name": "반석교회옆",
    "longitude": "126.8441304",
    "latitude": "37.54216688"
  },
  {
    "name": "308동앞#14가로등 밑",
    "longitude": "127.0722769",
    "latitude": "37.66636668"
  },
  {
    "name": "하나은행 건너편",
    "longitude": "126.8758257",
    "latitude": "37.53677908"
  },
  {
    "name": "대동아파트형 공장 앞",
    "longitude": "126.9007561",
    "latitude": "37.46643569"
  },
  {
    "name": "빙수골공영주차장",
    "longitude": "126.9402818",
    "latitude": "37.49960695"
  },
  {
    "name": "현대문화센타앞",
    "longitude": "127.127541",
    "latitude": "37.54312229"
  },
  {
    "name": "국기원 후문",
    "longitude": "127.0392152",
    "latitude": "37.49927697"
  },
  {
    "name": "올림픽 경륜장 옆",
    "longitude": "127.1272223",
    "latitude": "37.51632496"
  },
  {
    "name": "우리은행앞",
    "longitude": "126.9239551",
    "latitude": "37.55831827"
  },
  {
    "name": "성하주유소앞",
    "longitude": "126.8441304",
    "latitude": "37.54216688"
  },
  {
    "name": "109동, 111동 옆 도로",
    "longitude": "126.8758257",
    "latitude": "37.53677908"
  },
  {
    "name": "신세계 물류센터 앞",
    "longitude": "126.9007561",
    "latitude": "37.46643569"
  },
  {
    "name": "성남빌딩 옆",
    "longitude": "126.9036488",
    "latitude": "37.51785639"
  },
  {
    "name": "청원보육원 마당",
    "longitude": "126.9402818",
    "latitude": "37.49960695"
  },
  {
    "name": "코오롱 상가아파트 옆",
    "longitude": "127.127541",
    "latitude": "37.54312229"
  },
  {
    "name": "한신 8차 노인정 앞",
    "longitude": "127.0023271",
    "latitude": "37.5046175"
  },
  {
    "name": "문창운수 앞",
    "longitude": "126.9007561",
    "latitude": "37.46643569"
  },
  {
    "name": "신한은행 앞",
    "longitude": "126.8441304",
    "latitude": "37.54216688"
  },
  {
    "name": "농협영등포지점앞",
    "longitude": "126.9036488",
    "latitude": "37.51785639"
  },
  {
    "name": "선경부동산 앞",
    "longitude": "126.9346071",
    "latitude": "37.4630596"
  },
  {
    "name": "하나은행 상도지점 앞",
    "longitude": "126.9402818",
    "latitude": "37.49960695"
  },
  {
    "name": "한양아파트2동옆 노인정",
    "longitude": "127.0023271",
    "latitude": "37.5046175"
  },
  {
    "name": "수영장 앞",
    "longitude": "127.1272223",
    "latitude": "37.51632496"
  },
  {
    "name": "Bigten House 앞",
    "longitude": "127.0392152",
    "latitude": "37.49927697"
  },
  {
    "name": "신림9동사무소 앞",
    "longitude": "126.9346071",
    "latitude": "37.4630596"
  },
  {
    "name": "국민은행 앞",
    "longitude": "126.9036488",
    "latitude": "37.51785639"
  },
  {
    "name": "경원중학교 후문 앞",
    "longitude": "127.0023271",
    "latitude": "37.5046175"
  },
  {
    "name": "대방의원 앞",
    "longitude": "126.9402818",
    "latitude": "37.49960695"
  },
  {
    "name": "음악분수 앞",
    "longitude": "127.1272223",
    "latitude": "37.51632496"
  },
  {
    "name": "에스코빌딩 앞",
    "longitude": "127.0392152",
    "latitude": "37.49927697"
  },
  {
    "name": "삼성홈플러스앞",
    "longitude": "127.127541",
    "latitude": "37.54312229"
  },
  {
    "name": "한림 공무원학원앞",
    "longitude": "126.9346071",
    "latitude": "37.4630596"
  },
  {
    "name": "반포한양아파트 입구 시계 앞",
    "longitude": "127.0023271",
    "latitude": "37.5046175"
  },
  { "name": "이마트 앞", "longitude": "127.127541", "latitude": "37.54312229" },
  {
    "name": "7eleven앞",
    "longitude": "127.0392152",
    "latitude": "37.49927697"
  },
  {
    "name": "올림픽파크 호텔주차장",
    "longitude": "127.1272223",
    "latitude": "37.51632496"
  },
  {
    "name": "농협 천호동지점 주차장",
    "longitude": "127.127541",
    "latitude": "37.54312229"
  },
  {
    "name": "동1문 입구",
    "longitude": "127.1272223",
    "latitude": "37.51632496"
  }
]
